DATE,ADDRESS,CITY,STATE,POSTAL CODE,AGENT,BROKER,PRICE,LATITUDE,LONGITUDE,TIME
05/08/2024,#1503 - 2645 KIPLING AVENUE,TORONTO,ONTARIO,M9V3S6,EVA ADUSEI,RE/MAX HALLMARK FIRST GROUP REALTY LTD.,"$349,900",43.7475606,79.5834475,1 day
03/08/2024,47 - 869 WILSON AVENUE,TORONTO,ONTARIO,M3K1E6,HANNAH MANESH,MODERN SOLUTION REALTY INC.,"$619,000",43.7305266,79.4652488,2 days
30/07/2024,47 AVONWICK GATE E,TORONTO,ONTARIO,M3A2M8,MARTINA BRANKOVSKY,ROYAL LEPAGE SIGNATURE REALTY,"$1,499,800",43.7521061,79.3209285,59 days
31/07/2024,47 NORTHCOTE AVENUE,TORONTO,ONTARIO,M6J3K2,YAN GUREVICH,HARVEY KALLES REAL ESTATE LTD.,"$2,575,000",43.644257,79.426224,1 day
31/07/2024,4701 - 12 YORK STREET,TORONTO,ONTARIO,M5J0B1,DENOSH CUTTALALINGAM,RE/MAX MILLENNIUM REAL ESTATE,"$619,000",43.6417433,79.3819525,1 day
05/08/2024,4703 - 1 YORKVILLE AVENUE,TORONTO,ONTARIO,M4W1L1,MAX TAYLOR,RE/MAX ULTIMATE REALTY INC.,"$1,469,000",43.6716254,79.3877935,334 days
01/08/2024,4705 - 488 UNIVERSITY AVENUE,TORONTO,ONTARIO,M5G0C1,LINDA TA,BAKER REAL ESTATE INCORPORATED,"$988,800",43.6550277,79.3890703,
01/08/2024,4707 - 7 GRENVILLE STREET,TORONTO,ONTARIO,M4Y0E9,STEVE JEON,ROYAL LEPAGE NEW CONCEPT,"$2,800/MONTHLY",43.6619393,79.3838729,
03/08/2024,4669 DUNDAS STREET W,TORONTO,ONTARIO,M9A1A4,CONNIE SHEPPARD,ROYAL LEPAGE ESTATE REALTY,"$1,199,000",43.6543637,79.5231739,1 day
05/08/2024,4715 - 45 CHARLES STREET E,TORONTO,ONTARIO,M4Y0B8,MAX TAYLOR,RE/MAX ULTIMATE REALTY INC.,"$769,000",43.6689111,79.383977,129 days
05/08/2024,47A BABY POINT CRESCENT,TORONTO,ONTARIO,M6S2B7,ARIEL BLAIS,ROYAL LEPAGE REAL ESTATE SERVICES LTD.,"$4,500,000",43.6542932,79.4969838,172 days
05/08/2024,48 BELLAMY ROAD S,TORONTO,ONTARIO,M1M3P4,LAURA COOPER,ROYAL LEPAGE ESTATE REALTY,"$1,225,000",43.7361101,79.2267442,3 days
30/07/2024,48 BRUMWELL STREET,TORONTO,ONTARIO,M1C2K8,TOM DELUCA,LIVING REALTY INC.,"$1,399,000",43.7911598,79.1490827,26 days
30/07/2024,48 CONNAUGHT AVENUE,TORONTO,ONTARIO,M2M1G8,RYAN ABBASSI,RE/MAX HALLMARK REALTY LTD.,"$1,398,000",43.7887874,79.4191721,32 days
05/08/2024,48 GREEN SPRING DRIVE,TORONTO,ONTARIO,M1V2B1,CARRIE HO,FIRST CLASS REALTY INC.,"$1,238,000",43.8241798,79.264739,136 days
30/07/2024,48 TIDWORTH SQUARE,TORONTO,ONTARIO,M1S2V3,AMY XIN,HOMELIFE LANDMARK REALTY INC.,"$1,350,000",43.7864676,79.2663511,51 days
31/07/2024,48 TWENTY FIRST STREET,TORONTO,ONTARIO,M8V3L7,JOANNE B. GLUDISH,ROYAL LEPAGE REAL ESTATE SERVICES LTD.,"$999,900",43.5993432,79.5212805,20 hours
01/08/2024,4717 - 30 SHORE BREEZE DRIVE,TORONTO,ONTARIO,M8V0J1,MAY CHEN,HOMELIFE NEW WORLD CONDOMAX REALTY INC.,"$649,900",43.6237762,79.479633,
01/08/2024,48 UXBRIDGE AVENUE,TORONTO,ONTARIO,M6N2Y2,RONALD V. KIRSHENBLATT,ACCSELL REALTY INC.,"$635,900",43.6690579,79.456693,
05/08/2024,466 - 1030 KING STREET W,TORONTO,ONTARIO,M6K0B4,WINNIE LAM,RE/MAX CROSSROADS REALTY INC.,"$579,000",43.6418726,79.4159779,129 days
05/08/2024,464-468 WINONA DRIVE,TORONTO,ONTARIO,M6C3T7,JAMES LAROSE,FOREST HILL REAL ESTATE INC.,"$24,990,000",43.6893112,79.4358796,201 days
30/07/2024,46 CLIFTON AVENUE,TORONTO,ONTARIO,M3H4L1,HOI THI NGUYEN,HOMELIFE/MIRACLE REALTY LTD,"$1,450,000",43.7612448,79.4529256,17 days
30/07/2024,46 COXWELL AVENUE,TORONTO,ONTARIO,M4L3A7,SOPHIE ALEGRA GITERMAN,EASY LIST REALTY LTD.,"$1,399,999",43.6678142,79.3174373,7 days
05/08/2024,46 ELMER AVENUE,TORONTO,ONTARIO,M4L3R7,DEB BENNETT,KELLER WILLIAMS ADVANTAGE REALTY,"$1,999,000",43.6710683,79.304539,216 days
31/07/2024,46 FLINTWICK DRIVE,TORONTO,ONTARIO,M1P4G9,SUSIE INTHIRAN,LUXURY HOMES WORLD INC.,"$749,000",43.7678909,79.2511261,5 hours
05/08/2024,46 GOTHAM COURT,TORONTO,ONTARIO,M6M2N8,FRANK GIRALICO,CAPITAL NORTH REALTY CORPORATION,"$899,900",43.7011587,79.478198,122 days
30/07/2024,46 SANDBOURNE CRESCENT,TORONTO,ONTARIO,M2J3A6,GEORGIA KOTIADIS-CARNEVALE,ROYAL LEPAGE SIGNATURE REALTY,"$1,399,000",43.790039,79.3476004,27 days
05/08/2024,46 SATCHELL BOULEVARD,TORONTO,ONTARIO,M1C3B4,RAI K. MOHAN,RE/MAX ROUGE RIVER REALTY LTD.,"$1,250,000",43.7880266,79.1584089,1 hour
31/07/2024,4657 DUNDAS STREET W,TORONTO,ONTARIO,M9A1A4,DINA MAGLIETTA,SUMMERHILL PRESTIGE REAL ESTATE LTD.,"$2,299,000",43.6550727,79.5225154,8 hours
01/08/2024,4609 - 14 YORK STREET,TORONTO,ONTARIO,M5J2Z2,SAHIL MARWAHA,RE/MAX GOLD REALTY INC.,"$640,000",43.6419657,79.3815389,
30/07/2024,461 DONLANDS AVENUE,TORONTO,ONTARIO,M4J3S4,ZORAN PETER SPANOVIC,SUTTON GROUP ELITE REALTY INC.,"$1,349,900",43.6960435,79.3445317,26 days
03/08/2024,461 KINGSWOOD ROAD,TORONTO,ONTARIO,M4E3P4,BRENT CRAWFORD,RE/MAX HALLMARK ESTATE GROUP REALTY LTD.,"$1,149,900",43.6855397,79.2879587,1 day
05/08/2024,4610 - 87 PETER STREET,TORONTO,ONTARIO,M5V0P1,MAGGIE WANG,BAY STREET INTEGRITY REALTY INC.,"$749,000",43.6468374,79.3923754,179 days
01/08/2024,4611 - 87 PETER STREET,TORONTO,ONTARIO,M5V2G4,JENNY WU,HC REALTY GROUP INC.,"$650,000",43.6469038,79.3924393,
30/07/2024,462 RATHBURN ROAD,TORONTO,ONTARIO,M9C3S8,JANETTE MARCIA SASSO,KELLER WILLIAMS REAL ESTATE ASSOCIATES,"$1,489,000",43.652904,79.574489,47 days
30/07/2024,462&464 SAMMON AVENUE,TORONTO,ONTARIO,M4J2B2,DYLAN PROVENCHER,KELLER WILLIAMS ADVANTAGE REALTY,"$1,349,000",43.6880392,79.3298903,12 days
05/08/2024,464-468 WINONA DRIVE,TORONTO,ONTARIO,M6C3T7,RON SHEININ,SMART SOLD REALTY,"$6,999,999",43.6895185,79.4357878,124 days
01/08/2024,4609 - 38 WIDMER STREET,TORONTO,ONTARIO,M5V0P7,JENNY DONG,PROMPTON REAL ESTATE SERVICES CORP.,"$625,900",43.6479866,79.3918411,
03/08/2024,4802 - 38 WIDMER STREET,TORONTO,ONTARIO,M5V0P7,TYSON W. CAFE-RUOFF,RIGHT AT HOME REALTY,"$1,020,000",43.6480779,79.3917378,2 days
05/08/2024,4802 - 99 JOHN STREET,TORONTO,ONTARIO,M5V0S6,JOHN RICHARD FORTNEY,HARVEY KALLES REAL ESTATE LTD.,"$6,000,000",43.6475245,79.3899312,145 days
31/07/2024,4808 - 15 GRENVILLE STREET,TORONTO,ONTARIO,M4Y1A1,IAN ZHANG,FIRST CLASS REALTY INC.,"$999,000",43.6618614,79.3841461,2 days
31/07/2024,5 HAYES LANE,TORONTO,ONTARIO,M2N0E7,JENNY JIAN,MAPLE LIFE REALTY INC.,"$1,190,000",43.783032,79.3990889,1 day
30/07/2024,5 KAREN ANN CRESCENT,TORONTO,ONTARIO,M1G1M2,EVAN BLAINEY,RE/MAX ROUGE RIVER REALTY LTD.,"$1,499,000",43.7573332,79.211321,81 days
30/07/2024,5 LISCOMBE ROAD,TORONTO,ONTARIO,M6L2Z9,FRANK FALLICO,HARVEY KALLES REAL ESTATE LTD.,"$1,328,000",43.7129114,79.4991461,13 days
05/08/2024,5 MONTGOMERY AVENUE,TORONTO,ONTARIO,M1S1R6,PRAVISHA NAGARETNAM,RE/MAX PREMIER INC.,"$1,100,888",43.7910071,79.2800529,164 days
05/08/2024,5 PEMBURY AVENUE,TORONTO,ONTARIO,M4N3K4,SHANNA LU,SMART SOLD REALTY,"$4,649,000",43.7257005,79.38095,1 day
05/08/2024,5 PURLING PLACE,TORONTO,ONTARIO,M3B1V4,BARRY COHEN,RE/MAX REALTRON BARRY COHEN HOMES INC.,"$7,380,000",43.7468259,79.3753293,131 days
05/08/2024,5 RIPON ROAD,TORONTO,ONTARIO,M4B1H8,OKSANA KOHANOVA,ROYAL LEPAGE SIGNATURE REALTY,"$1,149,000",43.7034532,79.2949931,1 day
30/07/2024,5 DELBEATRICE CRESCENT,TORONTO,ONTARIO,M1C3G5,JOHN F. HARTFORD,RIGHT AT HOME REALTY,"$1,429,000",43.7808867,79.15661,44 days
03/08/2024,5 RIVERSIDE CRESCENT,TORONTO,ONTARIO,M6S1B5,MOTRIA DZULYNSKY,RE/MAX PROFESSIONALS INC.,"$4,595,000",43.6408446,79.4812155,2 days
05/08/2024,5 STONEDENE BOULEVARD,TORONTO,ONTARIO,M2R3C6,ADAM MAJOR,EASY LIST REALTY,"$1,599,000",43.7842225,79.4499537,193 days
30/07/2024,5 TANGLE BRIARWAY,TORONTO,ONTARIO,M2J2M5,SINA MOVAHEDI,CHESTNUT PARK REAL ESTATE LIMITED,"$999,000",43.7837918,79.367123,2 days
30/07/2024,5 WADSWORTH BOULEVARD,TORONTO,ONTARIO,M9N2G3,ANTHONY OTTAVINO,RE/MAX PREMIER INC.,"$1,389,000",43.7027822,79.5137741,13 days
31/07/2024,5 WALFORD ROAD,TORONTO,ONTARIO,M8X2N9,ASKO JOSEPH MARJANOVIC,HAZELTON REAL ESTATE INC.,"$1,799,000",43.6574579,79.5051226,3 days
30/07/2024,5 WESTHAMPTON DRIVE,TORONTO,ONTARIO,M9R1X7,ANTONIO SAADE HOUSH,CENTURY 21 LEADING EDGE REALTY INC.,"$1,269,000",43.7021336,79.5589772,5 hours
30/07/2024,50 GEORGE STREET,TORONTO,ONTARIO,M8V2S2,AMELIA KATICA POKLAR,CENTURY 21 ATRIA REALTY INC.,"$1,419,000",43.6095533,79.4945447,87 days
05/08/2024,5000 DUNDAS STREET W,TORONTO,ONTARIO,M9A1B8,ADAMO COLELLA,RE/MAX WEST REALTY INC.,"$3,449,000",43.646638,79.5310025,158 days
30/07/2024,5 SCOTCH ELMWAY AVENUE,TORONTO,ONTARIO,M4N3N4,NINA WANG,DREAM HOME REALTY INC.,"$1,368,000",43.73648,79.40466,48 days
05/08/2024,5 BROWSIDE AVENUE,TORONTO,ONTARIO,M5P2T9,TOBY HAN,MASTER'S TRUST REALTY INC.,"$5,580,000",43.6967574,79.4150101,136 days
03/08/2024,5 BARNES CRESCENT,TORONTO,ONTARIO,M1G1Z8,BADAR MAHMOOD,HOMELIFE/MIRACLE REALTY LTD,"$999,800",43.7656995,79.2189992,2 days
30/07/2024,5 - 88 MUNRO STREET,TORONTO,ONTARIO,M4M2S9,ALEXANDRA COTE,REAL BROKER ONTARIO LTD.,"$859,900",43.661629,79.3530242,3 days
01/08/2024,4809 - 38 WIDMER STREET,TORONTO,ONTARIO,M5V0P7,STEPHANIE LI,PROMPTON REAL ESTATE SERVICES CORP.,"$629,900",43.6479866,79.3918411,
05/08/2024,483 WESTMOUNT AVENUE,TORONTO,ONTARIO,M6E3N6,MATT GERLOCK,ROYAL LEPAGE REAL ESTATE SERVICES LTD.,"$979,000",43.6883302,79.4458271,4 days
30/07/2024,48A CHATFIELD DRIVE,TORONTO,ONTARIO,M3B1K5,SUNNY SINGH,"KELLER WILLIAMS ENERGY REAL ESTATE, BROKERAGE","$1,500,000",43.743986,79.3544883,95 days
31/07/2024,49 - 40 DUNDALK DRIVE,TORONTO,ONTARIO,M1P4S3,BRENDA SULLIVAN,CENTURY 21 HERITAGE GROUP LTD.,"$894,999",43.767965,79.2862893,22 hours
30/07/2024,49 ALLENBY AVENUE,TORONTO,ONTARIO,M9W1S5,LISA LI,IPRO REALTY LTD.,"$849,000",43.7120826,79.5495008,2 days
30/07/2024,49 GEMSHAW CRESCENT,TORONTO,ONTARIO,M1B1L3,TRISCIA S.K. CUST,HOMELIFE/VISION REALTY INC.,"$1,500,000",43.8001664,79.2111341,81 days
30/07/2024,49 GRAYSTONE GARDENS,TORONTO,ONTARIO,M8Z3C2,DAVID BIRD,ROYAL LEPAGE NRC REALTY,"$1,495,000",43.6395694,79.5254378,144 days
30/07/2024,49 KENTISH CRESCENT,TORONTO,ONTARIO,M1S2Z3,NATHAN SIVAPATHASUNDARAM,HOMELIFE/FUTURE REALTY INC.,"$1,398,000",43.7889498,79.2499165,53 days
05/08/2024,49 PHEASANT ROAD,TORONTO,ONTARIO,M2M3H1,CHARLES LI,"T-ONE GROUP REALTY INC.,","$4,188,000",43.7929842,79.4066375,126 days
01/08/2024,4909 - 12 YORK STREET,TORONTO,ONTARIO,M5J0A9,STEVE MOSTAFAEE,HOMELIFE/BAYVIEW REALTY INC.,"$619,900",43.6417442,79.3819559,
05/08/2024,4910 - 14 YORK STREET,TORONTO,ONTARIO,M5J0B1,AMBER LI,HOMELIFE NEW WORLD REALTY INC.,"$599,000",43.6421544,79.381624,158 days
03/08/2024,4910 - 197 YONGE STREET,TORONTO,ONTARIO,M5B1M4,LENA ZHOU,RE/MAX ELITE REAL ESTATE,"$659,000",43.6534359,79.3791875,1 day
30/07/2024,493 CARLAW AVENUE,TORONTO,ONTARIO,M4K3H9,EFFIE PANAGIOTOPOULOS,RE/MAX ULTIMATE REALTY INC.,"$1,389,900",43.6696955,79.3433709,27 days
31/07/2024,499 SCARBOROUGH GOLF CLU ROAD,TORONTO,ONTARIO,M1G1H3,CHRIS GAWRYS,GOWEST REALTY LTD.,"$1,049,000",43.7586195,79.2144156,5 hours
31/07/2024,499 SCARBOROUGH GOLF CLUB ROAD,TORONTO,ONTARIO,M1G1H3,CHRIS GAWRYS,"GOWEST REALTY LTD., BROKERAGE","$1,049,000",43.75862954,79.21443885,6 hours
30/07/2024,5 - 32 GOTHIC AVENUE,TORONTO,ONTARIO,M6P2V9,MICHAEL PHINNEY,ROYAL LEPAGE REAL ESTATE SERVICES PHINNEY REAL ESTATE,"$1,499,999",43.6537765,79.4685358,49 days
05/08/2024,46 BUDWORTH DRIVE,TORONTO,ONTARIO,M1E3H9,BANTOO KHURANA,CENTURY 21 LEADING EDGE REALTY INC.,"$1,249,000",43.7645145,79.181097,2 days
05/08/2024,5001 - 311 BAY STREET,TORONTO,ONTARIO,M5H4G5,DHIREN PATEL,FOREST HILL REAL ESTATE INC.,"$3,425,000",43.6498719,79.3801828,144 days
05/08/2024,4577 STEELES AVENUE E,TORONTO,ONTARIO,M1V4S4,FRANK J. PROTOMANNI,CBRE LIMITED,"$14,000,000",43.8237432,79.3056986,149 days
05/08/2024,452 - 24 SOUTHPORT STREET,TORONTO,ONTARIO,M6S4Z1,ERIKA ALVARENGA DA SILVA,EXP REALTY,"$735,000",43.6376168,79.4729925,165 days
05/08/2024,43 - 30 DUNDALK DRIVE,TORONTO,ONTARIO,M1P4W1,MANOGARAN SUBRAMANIAM,HOMELIFE/FUTURE REALTY INC.,"$798,000",43.7665298,79.2849306,2 days
30/07/2024,43 ASHFIELD DRIVE,TORONTO,ONTARIO,M9C4T7,DEAN BANASCO,RE/MAX REALTY SPECIALISTS INC.,"$1,189,990",43.6663002,79.5831729,3 days
05/08/2024,43 FOREST GROVE DRIVE,TORONTO,ONTARIO,M2K1Z4,SUSAN IRIARTE,ROYAL LEPAGE REAL ESTATE SERVICES LTD.,"$11,995,000",43.7794751,79.3794842,156 days
30/07/2024,43 MERRYGALE CRESCENT,TORONTO,ONTARIO,M9B5N9,MIRANDA BIMO,SUTTON GROUP-ADMIRAL REALTY INC.,"$1,410,000",43.6572754,79.5607284,32 days
31/07/2024,43 SHELLAMWOOD TRAIL,TORONTO,ONTARIO,M1S2M9,ARIANNA CODELUPPI,RE/MAX ABOUTOWNE REALTY CORP.,"$1,588,000",43.8029566,79.2810375,33 minutes
31/07/2024,43 SNOWSHOE MILLWAY,TORONTO,ONTARIO,M2L1T4,JENNIFER MARY POPO,ROYAL LEPAGE SIGNATURE REALTY,"$1,595,000",43.7507642,79.3800941,5 hours
03/08/2024,43 TARRAGONA BOULEVARD,TORONTO,ONTARIO,M6N5C2,TONY HUDSON,CENTURY 21 LEADING EDGE REALTY INC.,"$1,150,000",43.6718274,79.4736867,2 days
05/08/2024,42A LINDEN AVENUE,TORONTO,ONTARIO,M1K3H5,LOUIS STOJCEVSKI,ROYAL LEPAGE REAL ESTATE SERVICES LTD.,"$949,900",43.7203047,79.2571776,3 days
31/07/2024,430 - 2300 ST CLAIR AVENUE W,TORONTO,ONTARIO,M6N1K8,GEORGE KOZARIS,ROYAL LEPAGE VISION REALTY,"$569,900",43.6704884,79.4781969,1 day
05/08/2024,4302 - 180 UNIVERSITY AVENUE,TORONTO,ONTARIO,M5H0A2,AMIR ZARABI,ALLIANCE REALTY INC.,"$1,150,000",43.6488268,79.386259,140 days
05/08/2024,4303 - 21 ICEBOAT TERRACE,TORONTO,ONTARIO,M5V4A9,PETER WANG,BAY STREET GROUP INC.,"$735,000",43.6404981,79.3974313,571 days
31/07/2024,4303 - 2220 LAKESHORE BOULEVARD W,TORONTO,ONTARIO,M8V0C1,SAVANNAH WENG,RE/MAX DASH REALTY,"$599,000",43.6228596,79.4831828,8 hours
01/08/2024,4303 - 2220 LAKESHORE BOULEVARD W,TORONTO,ONTARIO,M8V0C1,SAVANNAH WENG,RE/MAX DASH REALTY,"$639,900",43.6228596,79.4831828,
31/07/2024,4303 - 75 QUEENS WHARF ROAD,TORONTO,ONTARIO,M5V0J8,LIZ LIU,RE/MAX ATRIUM HOME REALTY,"$708,800",43.6384766,79.3980126,2 days
31/07/2024,4304 - 28 FREELAND STREET,TORONTO,ONTARIO,M5E0E3,TAREK AGHA,RIGHT AT HOME REALTY,"$849,000",43.6436476,79.3737615,36 minutes
05/08/2024,4306 - 8 CUMBERLAND STREET,TORONTO,ONTARIO,M4W0B6,JONATHAN TUTTLE,MILBORNE REAL ESTATE INC.,"$1,559,990",43.6710845,79.3877873,177 days
05/08/2024,4302 - 15 MERCER STREET,TORONTO,ONTARIO,M5V3C6,APRIL DE JESUS,ROYAL LEPAGE CERTIFIED REALTY,"$1,799,990",43.6455696,79.3901536,124 days
05/08/2024,4307 - 8 CUMBERLAND STREET,TORONTO,ONTARIO,M4W0B6,JONATHAN TUTTLE,MILBORNE REAL ESTATE INC.,"$1,359,990",43.6710845,79.3877873,177 days
05/08/2024,429 - 2300 ST CLAIR AVENUE W,TORONTO,ONTARIO,M6N1K8,NOORY DINANI,HOUSESIGMA INC.,"$595,000",43.6704884,79.4781969,196 days
03/08/2024,426 - 900 MOUNT PLEASANT ROAD,TORONTO,ONTARIO,M4P3J9,CHRISTOPHER ANDREW BIBBY,RE/MAX HALLMARK BIBBY GROUP REALTY,"$749,900",43.7115287,79.3916203,1 day
05/08/2024,4202 - 101 CHARLES STREET E,TORONTO,ONTARIO,M4Y0A9,MASOOD WAHAB,HOMELIFE FRONTIER REALTY INC.,"$950,000",43.6696371,79.3805424,22 hours
05/08/2024,4202 - 311 BAY STREET,TORONTO,ONTARIO,M5H4G5,DHIREN PATEL,FOREST HILL REAL ESTATE INC.,"$1,671,000",43.6498478,79.3802017,144 days
31/07/2024,4205 - 11 WELLESLEY STREET W,TORONTO,ONTARIO,M4Y0G4,GRACE NG,SINCERE REALTY INC.,"$1,388,000",43.6651161,79.3841772,1 day
01/08/2024,4206 - 181 DUNDAS STREET E,TORONTO,ONTARIO,M5A0N5,JANICE ZHANG,HOMELIFE LANDMARK REALTY INC.,"$629,990",43.6570682,79.3740411,
01/08/2024,4207 - 14 YORK STREET,TORONTO,ONTARIO,M5J0B1,HARJOT SANDHU,ROYAL LEPAGE CREDIT VALLEY REAL ESTATE,"$649,000",43.6421544,79.381624,
31/07/2024,4207 - 501 YONGE STREET,TORONTO,ONTARIO,M4Y0G8,JASON HUAN CHEN,HOMELIFE NEW WORLD REALTY INC.,"$748,800",43.6631881,79.3836001,3 days
01/08/2024,4208 DUNDAS STREET W UNIT# PH810,TORONTO,ONTARIO,M8X0B1,NICHOLAS CROZIER,KELLER WILLIAMS REAL ESTATE ASSOCIATES,"$630,000",43.66048791,79.51164369,
01/08/2024,427 - 500 WILSON AVENUE,TORONTO,ONTARIO,M3H5Y9,JONATHAN NHAM,RESIDENTIAL DEVELOPMENT SERVICES INC.,"$605,000",43.7353469,79.4453099,
01/08/2024,421 - 295 ADELAIDE STREET W,TORONTO,ONTARIO,M5V0L4,JANETTE GILL,BERKSHIRE HATHAWAY HOMESERVICES TORONTO,"$619,900",43.6476752,79.390532,
30/07/2024,4211 - 38 WIDMER STREET,TORONTO,ONTARIO,M5V2E9,DAN HAO,GOLDEN BRIDGE REALTY,"$1,438,000",43.6480856,79.391839,109 days
01/08/2024,422 - 2301 DANFORTH AVENUE,TORONTO,ONTARIO,M4C0A7,WANDEE LEE,SUTTON GROUP OLD MILL REALTY INC.,"$639,900",43.686778,79.3072468,
31/07/2024,422 - 60 MENDELSSOHN STREET,TORONTO,ONTARIO,M1L0G9,JAMES MARTINEZ,RIGHT AT HOME REALTY,"$589,000",43.7160122,79.2823755,1 day
30/07/2024,425 - 119 MERTON STREET,TORONTO,ONTARIO,M4S3G5,JONATHAN GUCCI,ROYAL LEPAGE SIGNATURE SUSAN GUCCI REALTY,"$759,000",43.6967977,79.3923687,2 days
31/07/2024,425 - 30 INN ON THE PARK DRIVE,TORONTO,ONTARIO,M3C0P7,MOHAMMAD NAFARI FARD,ROYAL LEPAGE SIGNATURE REALTY,"$1,145,000",43.7192183,79.3481879,1 day
03/08/2024,426 - 1100 KINGSTON ROAD,TORONTO,ONTARIO,M1N0B3,WADE ADAMS,COLDWELL BANKER 2M REALTY,"$489,000",43.681477,79.2824707,25 minutes
01/08/2024,426 - 52 FOREST MANOR ROAD,TORONTO,ONTARIO,M2J0E2,RAV SARAI,HOMELIFE MAPLE LEAF REALTY LTD.,"$635,000",43.7733296,79.3458195,
31/07/2024,421 GLENHOLME AVENUE,TORONTO,ONTARIO,M6E3E8,LOUIS H. DESTOUNIS,HARVEY KALLES REAL ESTATE LTD.,"$1,099,000",43.6897253,79.442737,1 day
05/08/2024,4309 - 38 GRENVILLE STREET,TORONTO,ONTARIO,M4Y1A5,SAM HUI,RIGHT AT HOME REALTY,"$728,000",43.6618845,79.3857031,2 days
30/07/2024,4309 - 65 ST MARY STREET,TORONTO,ONTARIO,M5S0A6,MARAL KHALILI NAMAZI,CENTURY 21 PERCY FULTON LTD.,"$1,300,000",43.6671043,79.389327,47 days
30/07/2024,4311 - 761 BAY STREET,TORONTO,ONTARIO,M5G2R2,HAMID PARSA,CENTURY 21 ATRIA REALTY INC.,"$1,338,000",43.6596493,79.3849721,108 days
05/08/2024,45 DANBY AVENUE,TORONTO,ONTARIO,M3H2J4,STEVEN LESLIE GREEN,ROYAL LEPAGE REAL ESTATE SERVICES LTD.,"$1,598,000",43.748091,79.4407502,124 days
05/08/2024,45 DUNDALK DRIVE,TORONTO,ONTARIO,M1P4V1,SHAWN SU,TARGET ONE REALTY POINT,"$980,000",43.7687634,79.2850864,267 days
31/07/2024,45 NORTHCOTE AVENUE,TORONTO,ONTARIO,M6J3K2,YAN GUREVICH,HARVEY KALLES REAL ESTATE LTD.,"$2,775,000",43.6442075,79.426191,1 day
03/08/2024,45 SWORDBILL DRIVE,TORONTO,ONTARIO,M9A4V3,ANDREAS TASSIOS,RIGHT AT HOME REALTY,"$3,895/MONTHLY",43.6820537,79.5243853,20 hours
31/07/2024,4501 - 50 YORKVILLE AVENUE,TORONTO,ONTARIO,M4W0A3,BARRY COHEN,RE/MAX REALTRON BARRY COHEN HOMES INC.,"$8,995,000",43.6717475,79.389694,5 hours
30/07/2024,4502 - 10 NAVY WHARF COURT,TORONTO,ONTARIO,M5V3V2,ANNA OLIVER,REAL BROKER ONTARIO LTD.,"$1,495,000",43.6404514,79.3919349,140 days
31/07/2024,4502 - 15 MERCER STREET,TORONTO,ONTARIO,M5V3C6,CATHY HAVERCROFT,BERKSHIRE HATHAWAY HOMESERVICES TORONTO,"$1,699,000",43.645588,79.3903385,1 day
05/08/2024,45 BAYVIEW RIDGE,TORONTO,ONTARIO,M2L1E3,ADAM BRIND,SOTHEBY'S INTERNATIONAL REALTY CANADA,"$22,500,000",43.741992,79.3875863,206 days
05/08/2024,4503 - 311 BAY STREET,TORONTO,ONTARIO,M5H4G5,DHIREN PATEL,FOREST HILL REAL ESTATE INC.,"$1,795,000",43.6498478,79.3802017,147 days
01/08/2024,4504 - 8 EGLINTON AVENUE,TORONTO,ONTARIO,M4P0C1,SHERRY DABIR,ROYAL LEPAGE YOUR COMMUNITY REALTY,"$629,000",43.7072161,79.3979456,
30/07/2024,4509 - 10 NAVY WHARF COURT,TORONTO,ONTARIO,M5V3V2,MUNIRA RAVJI,ROYAL LEPAGE SIGNATURE REALTY,"$1,349,999",43.6404514,79.3919349,7 days
05/08/2024,4509 - 10 NAVY WHARF COURT,TORONTO,ONTARIO,M5V3V2,MUNIRA RAVJI,ROYAL LEPAGE SIGNATURE REALTY,"$1,100,000",43.6404514,79.3919349,2 days
05/08/2024,4509 - 2200 LAKE SHORE BOULEVARD W,TORONTO,ONTARIO,M8V1A4,SUSAN TABIBZADAH,LIMELIGHT REALTY INC.,"$949,900",43.6229259,79.4818525,137 days
05/08/2024,451 ROGERS ROAD,TORONTO,ONTARIO,M6M1A6,PAUL HELPS,ROYAL LEPAGE YOUR COMMUNITY REALTY,"$799,000",43.6822723,79.4650545,228 days
01/08/2024,4510 - 2212 LAKE SHORE BOULEVARD W,TORONTO,ONTARIO,M8V0C2,KOMAL USMAN,SOTHEBY'S INTERNATIONAL REALTY CANADA,"$628,000",43.6225296,79.4823428,
01/08/2024,4510 - 2221 YONGE STREET,TORONTO,ONTARIO,M4S0B8,GEETA RAJPAL,RE/MAX KEY2 REAL ESTATE,"$645,000",43.7060642,79.3977203,
31/07/2024,4504 - 8 EGLINTON AVENUE,TORONTO,ONTARIO,M4P0C1,SHERRY DABIR,ROYAL LEPAGE YOUR COMMUNITY REALTY,"$599,000",43.7072161,79.3979456,1 day
05/08/2024,447 HORSHAM AVENUE,TORONTO,ONTARIO,M2R1H3,PETER ZETIC,SACHS REALTY INC.,"$1,399,900",43.7684637,79.4413614,182 days
01/08/2024,445 - 26 GIBBS ROAD,TORONTO,ONTARIO,M9B0E3,SARA KELCEY,THE GREENHEART GROUP,"$650,000",43.6394155,79.558367,
01/08/2024,4416 - 87 PETER STREET,TORONTO,ONTARIO,M5V0P1,LIEM VIEN,ROYAL LEPAGE SIGNATURE REALTY,"$639,900",43.6468737,79.392387,
01/08/2024,432 - 600 FLEET STREET,TORONTO,ONTARIO,M5V1B7,MITRA NOBAKHT-EIVALY,KELLER WILLIAMS REFERRED URBAN REALTY,"$425,000",43.6369395,79.4001658,
01/08/2024,434 - 1 BELSIZE DRIVE,TORONTO,ONTARIO,M4S0B9,FRANK ZHAO,BAY ST. POPULAR REAL ESTATE,"$619,000",43.7002356,79.3966585,
30/07/2024,435 ELLERSLIE AVENUE,TORONTO,ONTARIO,M2R1C1,ORA M. ROSS,KELLER WILLIAMS REFERRED URBAN REALTY,"$1,420,000",43.7663189,79.4361116,61 days
30/07/2024,436 GILBERT AVENUE,TORONTO,ONTARIO,M6E4X3,JEREMY VIDAL,RE/MAX ULTIMATE REALTY INC.,"$1,369,900",43.6899893,79.4626723,109 days
05/08/2024,437 MANNING AVENUE,TORONTO,ONTARIO,M6G2V6,GLORIA YEUNG,RE/MAX HALLMARK REALTY LTD.,"$2,688,000",43.6579371,79.4133217,4 days
01/08/2024,438N - 26 GIBBS ROAD,TORONTO,ONTARIO,M9B0E3,MAIA MITCHELL,FOREST HILL REAL ESTATE INC.,"$649,900",43.6394155,79.558367,
30/07/2024,43E GREEN BELT DRIVE,TORONTO,ONTARIO,M3C1L8,ZELLO JOVANOVIC,RE/MAX PROFESSIONALS INC.,"$1,388,000",43.7308956,79.3356341,35 days
30/07/2024,44 EDGECROFT ROAD,TORONTO,ONTARIO,M8Z2B8,VLADIMIR TRKULJA,CENTURY 21 REGAL REALTY INC.,"$1,449,000",43.6294453,79.5094384,2 days
30/07/2024,44 HESKETH COURT,TORONTO,ONTARIO,M4A1M6,EVA HAASE,ROYAL LEPAGE SIGNATURE REALTY,"$1,399,000",43.7277066,79.3077639,12 days
05/08/2024,44 NORTHEY DRIVE,TORONTO,ONTARIO,M2L2S9,EDDIE WING-YIU WOO,HOMELIFE/GTA REALTY INC.,"$1,210,000",43.7642917,79.368637,3 days
05/08/2024,44 NURSEWOOD ROAD,TORONTO,ONTARIO,M4E3R8,AUGUSTUS THEODOROU,RE/MAX NOBLECORP REAL ESTATE,"$1,648,800",43.6734606,79.2813177,165 days
05/08/2024,44 RONWAY CRESCENT,TORONTO,ONTARIO,M1J2S2,DAVID ANTON,ROYAL LEPAGE CONNECT REALTY,"$1,199,000",43.7459428,79.2298056,3 days
05/08/2024,4402 - 15 LOWER JARVIS STREET,TORONTO,ONTARIO,M5E0E4,JOSEPH KHLAIF,GULF LAKE REALTY LTD.,"$3,300,888",43.6451805,79.3692779,1 day
05/08/2024,4403 - 28 FREELAND STREET,TORONTO,ONTARIO,M2J1M6,STANLEY WONG,HOMELIFE FRONTIER REALTY INC.,"$854,900",43.6436476,79.3737615,192 days
30/07/2024,4404 - 33 CHARLES STREET E,TORONTO,ONTARIO,M4Y0A2,SHARON SEOK,HOME STANDARDS BRICKSTONE REALTY,"$1,428,800",43.6685778,79.3844795,96 days
05/08/2024,4408 - 2221 YONGE STREET,TORONTO,ONTARIO,M4S0B8,HAMID NIAZI,CAPITAL NORTH REALTY CORPORATION,"$679,000",43.7060448,79.3979805,4 days
01/08/2024,4408 - 33 CHARLES STREET E,TORONTO,ONTARIO,M4Y0A2,WENTIN HUANG,MEHOME REALTY (ONTARIO) INC.,"$628,000",43.6687249,79.3845133,
05/08/2024,45-47 HENDON AVENUE,TORONTO,ONTARIO,M2M1A4,RYAN BOBYK,CBRE LIMITED,"$6,500,000",43.7806469,79.4196069,132 days
30/07/2024,5005 - 180 UNIVERSITY AVENUE,TORONTO,ONTARIO,M5H0A2,JOHN TOMASONE,THE AGENCY,"$1,360,000",43.6488268,79.386259,35 days
30/07/2024,501 - 10 PRUE AVENUE,TORONTO,ONTARIO,M6B1R4,JACK H. SAMUEL,HARVEY KALLES REAL ESTATE LTD.,"$1,395,000",43.7097765,79.4278056,4 days
01/08/2024,501 - 150 NEPTUNE DRIVE,TORONTO,ONTARIO,M6A2Y9,HASKEL ZIONCE,WEISS REALTY LTD.,"$649,000",43.729713,79.4412,
03/08/2024,526 - 2791 EGLINTON AVENUE E,TORONTO,ONTARIO,M1J0B3,PARVEEN ARORA,RE/MAX REAL ESTATE CENTRE TEAM ARORA REALTY,"$649,000",43.7369703,79.2451034,2 days
30/07/2024,526 MILVERTON BOULEVARD,TORONTO,ONTARIO,M4C1X5,PETER PETRALITO,WEISS REALTY LTD.,"$1,449,990",43.6876088,79.3210078,81 days
01/08/2024,529 - 2799 KINGSTON ROAD,TORONTO,ONTARIO,M1M0E3,AKBAR HOSSAIN,ROYAL LEPAGE SIGNATURE REALTY,"$639,000",43.7202424,79.2375017,
30/07/2024,53 CHURCHILL AVENUE,TORONTO,ONTARIO,M6J2B5,TONI MARTINS,RE/MAX ULTIMATE REALTY INC.,"$1,349,900",43.6513377,79.424817,25 days
03/08/2024,53 DENNETTE DRIVE,TORONTO,ONTARIO,M1S2E8,RASIAH SIVAKUMARAN,HOMELIFE/FUTURE REALTY INC.,"$1,285,000",43.7919541,79.2732986,1 day
05/08/2024,53 MCALLISTER ROAD,TORONTO,ONTARIO,M3H2N1,HOUMAN VASSIGHI,HOMELIFE LANDMARK REALTY INC.,"$1,500,000",43.7524701,79.441549,139 days
31/07/2024,53 NEPTUNE DRIVE,TORONTO,ONTARIO,M6A1X2,CHRIS COOK,RE/MAX HALLMARK REALTY LTD.,"$325,000",43.7317296,79.4356665,8 hours
03/08/2024,526 - 10 PARK LAWN ROAD N,TORONTO,ONTARIO,M8V0H9,IBRAHIM ABOWATH,KELLER WILLIAMS LEGACIES REALTY,"$549,990",43.6233108,79.4837509,2 days
01/08/2024,53 REGENT STREET,TORONTO,ONTARIO,M5A0P1,KEVIN YU,ROYAL LEPAGE TERREQUITY KEVIN YU REALTY,"$1,050,000",43.6588815,79.3639134,
30/07/2024,530 SILVERTHORN AVENUE,TORONTO,ONTARIO,M6M3H7,RONALD A. SILVA RODRIGUEZ,KELLER WILLIAMS ADVANTAGE REALTY,"$1,379,000",43.6899832,79.4678234,42 days
05/08/2024,5302 - 28 FREELAND STREET,TORONTO,ONTARIO,M5E0E3,VALERIE XU,ADJOIN REALTY INC.,"$2,799,000",43.6436476,79.3737615,132 days
01/08/2024,533 - 111 ELIZABETH STREET,TORONTO,ONTARIO,M5G1P7,DANIEL D. Y. CHEN,CENTURY 21 REGAL REALTY INC.,"$860,000",43.6551126,79.3848059,
30/07/2024,534 PAPE AVENUE,TORONTO,ONTARIO,M4K3R4,ALBERT HWANG,REAL ESTATE HOMEWARD,"$1,450,000",43.6740197,79.3431253,27 days
30/07/2024,534 QUEEN STREET E,TORONTO,ONTARIO,M5A1V2,ROBERT FRANCIS,RE/MAX HALLMARK REALTY LTD.,"$1,480,000",43.6573232,79.3579139,26 days
31/07/2024,535 - 112 GEORGE STREET,TORONTO,ONTARIO,M5A2M5,CHRIS KOWAL,ROYAL LEPAGE URBAN REALTY,"$1,025,000",43.6521632,79.3716104,1 day
01/08/2024,53 THICKET ROAD,TORONTO,ONTARIO,M9C2T4,SCOTT ADAMSON,RE/MAX PREMIER INC.,"$1,800,000",43.6400533,79.5768681,
03/08/2024,535 - 31 TIPPETT ROAD,TORONTO,ONTARIO,M3H0C8,RALUCA URLEA,RIGHT AT HOME REALTY,"$559,900",43.7335125,79.4460849,2 days
01/08/2024,525 ADELAIDE STREET W UNIT# 803,TORONTO,ONTARIO,M5V1T6,CHRISTIAN RAJIC,BERKSHIRE HATHAWAY HOMESERVICES WEST REALTY,"$648,888",43.64526507,79.40244153,
05/08/2024,525 - 85 EAST LIBERTY STREET,TORONTO,ONTARIO,M6K3R4,HA YOUNG JEONG,RIGHT AT HOME REALTY,"$948,000",43.6381606,79.4155672,2 days
01/08/2024,5203 - 197 YONGE STREET,TORONTO,ONTARIO,M5B1M4,JIAN MIAO,RE/MAX EXCEL ALLIANCE REALTY,"$638,000",43.6534359,79.3791875,
03/08/2024,5203 - 197 YONGE STREET,TORONTO,ONTARIO,M5B1M4,JIAN MIAO,RE/MAX EXCEL ALLIANCE REALTY,"$2,300",43.6534359,79.3791875,1 day
30/07/2024,5207 - 108 PETER STREET,TORONTO,ONTARIO,M5V0W2,ALAN LAW,CENTURY 21 ATRIA REALTY INC.,"$1,325,900",43.6476915,79.3933074,65 days
01/08/2024,521 - 158 FRONT STREET E,TORONTO,ONTARIO,M5J2L6,AMY YOUNG-MIN KIM,BAYTREE REAL ESTATE INC.,"$629,000",43.6454099,79.384531,
01/08/2024,521 - 400 ADELAIDE STREET E,TORONTO,ONTARIO,M5A4S3,MICHAEL TAM,RIGHT AT HOME REALTY,"$615,000",43.6527814,79.3677616,
31/07/2024,521 - 585 BLOOR STREET E,TORONTO,ONTARIO,M4W0B3,STEPHEN WANG,EVERLAND REALTY INC.,"$618,888",43.6717536,79.3714449,17 hours
05/08/2024,5210 - 10 YORK STREET,TORONTO,ONTARIO,M5J2Z2,DANIEL SHEIKHAN,DANMAR EMPIRE REAL ESTATE CORP.,"$1,750,000",43.6412774,79.3810711,3 days
01/08/2024,525 ADELAIDE STREET W UNIT# 527,TORONTO,ONTARIO,M5V0N7,ANTHONY MILANI,KELLER WILLIAMS COMPLETE REALTY,"$639,900",43.64503246,79.40214409,
05/08/2024,5210 - 395 BLOOR STREET E,TORONTO,ONTARIO,M4W1H7,SHAMMI BAWA,SAVE MAX GOLD ESTATE REALTY,"$960,000",43.6719746,79.3774195,2 days
31/07/2024,523 - 57 ST JOSEPH STREET,TORONTO,ONTARIO,M5S0C5,RAYMOND SEO,RE/MAX REALTY ENTERPRISES INC.,"$1,099,000",43.6654338,79.3879838,1 day
03/08/2024,524 - 250 LAWRENCE AVENUE,TORONTO,ONTARIO,M5M1B1,ALAN LAW,CENTURY 21 ATRIA REALTY INC.,"$964,900",43.7229268,79.4139016,2 days
01/08/2024,524 - 2720 DUNDAS STREET W,TORONTO,ONTARIO,M6P0C3,PAUL JOHNSTON,RIGHT AT HOME REALTY,"$1,099,800",43.6650489,79.4597113,
01/08/2024,524 - 36 ZORRA STREET,TORONTO,ONTARIO,M8Z0G5,TIA PHAM,ROYAL LEPAGE PERFORMANCE REALTY,"$649,000",43.6197417,79.5217377,
30/07/2024,524 SALEM AVENUE N,TORONTO,ONTARIO,M6H3E1,DANNY GAUDIO,ROYAL LEPAGE PREMIUM ONE REALTY,"$1,399,900",43.6734524,79.4372295,102 days
05/08/2024,525 - 36 ZORRA STREET,TORONTO,ONTARIO,M8Z4Z7,KYUNG HWAN BAE,RIGHT AT HOME REALTY,"$788,000",43.6197417,79.5217377,124 days
05/08/2024,525 - 50 GEORGE BUTCHART DRIVE,TORONTO,ONTARIO,M3K0C9,SHAYAN SHOJAEI,ROYAL LEPAGE SIGNATURE REALTY,"$449,000",43.7365452,79.4838787,3 days
01/08/2024,522 - 628 FLEET STREET,TORONTO,ONTARIO,M5V1A8,ANDREW DOUMONT,KELLER WILLIAMS REFERRED URBAN REALTY,"$619,000",43.6362736,79.4032604,
05/08/2024,54 - 93 THE QUEENS WAY,TORONTO,ONTARIO,M6S5A7,BOBBY RANDHAWA,IPRO REALTY LTD.,"$650,000",43.6369598,79.4679794,4 days
30/07/2024,54 ASH CRESCENT,TORONTO,ONTARIO,M8W1E6,PAYAM SAMADI,HOMELIFE/BAYVIEW REALTY INC.,"$1,490,000",43.5950183,79.5277936,56 days
30/07/2024,54 BENTWORTH AVENUE,TORONTO,ONTARIO,M6A1P4,EDWARD ABDOU,HARVEY KALLES REAL ESTATE LTD.,"$1,398,000",43.7211568,79.4605573,77 days
05/08/2024,558 CLENDENAN AVENUE,TORONTO,ONTARIO,M6P2Y1,MICHAEL ANDREW ROY,SUTTON GROUP OLD MILL REALTY INC.,"$1,749,999",43.666477,79.4738821,2 days
30/07/2024,559A BIRCHMOUNT ROAD,TORONTO,ONTARIO,M1K1P8,CHRIS GAWRYS,GOWEST REALTY LTD.,"$1,320,000",43.7125426,79.2700483,52 days
05/08/2024,56 - 50 TURNTABLE CRESCENT,TORONTO,ONTARIO,M6H4K9,JOHANNA WEAVER,SUTTON GROUP OLD MILL REALTY INC.,"$709,900",43.6706022,79.4500616,157 days
31/07/2024,56 CARSLAKE CRESCENT,TORONTO,ONTARIO,M1J2A7,KHALID ZUBERI,CENTURY 21 LEADING EDGE REALTY INC.,"$1,085,000",43.746899,79.2437713,5 hours
31/07/2024,56 GLENSTROKE DRIVE,TORONTO,ONTARIO,M1S2Z9,LUISA BADA,SPECTRUM REALTY SERVICES INC.,"$989,000",43.7907634,79.2514831,33 minutes
30/07/2024,56 SOMERDALE SQUARE,TORONTO,ONTARIO,M1E1N1,ADELE MARTIN,CENTURY 21 REGAL REALTY INC.,"$1,349,000",43.7505499,79.1962,104 days
31/07/2024,5607 - 180 UNIVERSITY AVENUE,TORONTO,ONTARIO,M5H0A2,TATIANA BRUDNY,RIGHT AT HOME REALTY,"$1,295,000",43.6488268,79.386259,3 days
31/07/2024,5531 LAWRENCE AVENUE E,TORONTO,ONTARIO,M1C5K4,TONYA MCINTYRE,RE/MAX HALLMARK FIRST GROUP REALTY LTD.,"$899,900",43.7790007,79.1380484,3 days
30/07/2024,564 HORNER AVENUE,TORONTO,ONTARIO,M8W2C4,TENZIN KHEDUP,CENTURY 21 PEOPLE'S CHOICE REALTY INC.,"$1,490,000",43.600917,79.5500839,13 days
30/07/2024,57 EXBURY ROAD,TORONTO,ONTARIO,M3M1P9,SEBASTIAN ZEPPIERI,RE/MAX PREMIER INC.,"$1,399,000",43.7325718,79.4974333,52 days
01/08/2024,57 LANGSIDE AVENUE,TORONTO,ONTARIO,M9N3E5,JONATHAN BRADSHAW,RE/MAX PROFESSIONALS INC.,"$699,000",43.7106606,79.5178974,
30/07/2024,57 REGENT ROAD,TORONTO,ONTARIO,M3K1G8,LINO ACHILLE ARCI,RE/MAX HALLMARK REALTY LTD.,"$1,399,000",43.7324159,79.4620651,12 days
05/08/2024,57 ROLLSCOURT DRIVE,TORONTO,ONTARIO,M2L1X6,BELLA LEE,FOREST HILL REAL ESTATE INC.,"$4,880,000",43.75577,79.3796923,129 days
01/08/2024,57 ST NICHOLAS STREET,TORONTO,ONTARIO,M4Y1W6,FATIMA BREGMAN,RE/MAX HALLMARK REALTY LTD.,"$1,969,000",43.6671811,79.3863031,
30/07/2024,57 WELLESWORTH DRIVE,TORONTO,ONTARIO,M9C4R2,DELIP CHOOK,ROYAL LEPAGE WEST REALTY GROUP LTD.,"$1,350,000",43.6660298,79.5792039,16 days
31/07/2024,5702 - 10 YORK STREET,TORONTO,ONTARIO,M5J0E1,STEPHEN LUK,LANDPOWER REAL ESTATE LTD.,"$738,000",43.6411454,79.3813125,1 day
05/08/2024,57 ALCORN AVENUE,TORONTO,ONTARIO,M4V1E5,GRAEME A. MCINTOSH,CHESTNUT PARK REAL ESTATE LIMITED,"$2,495,000",43.6814699,79.394144,1 day
31/07/2024,553 MCROBERTS AVENUE,TORONTO,ONTARIO,M6E4R5,NELSON ANTONIO CAMPOS,SUTTON GROUP REALTY SYSTEMS INC.,"$999,000",43.6900102,79.4592561,1 day
05/08/2024,5507 - 10 YORK STREET,TORONTO,ONTARIO,M5J2Z2,FRANCIS MAN LUN AU,NU STREAM REALTY (TORONTO) INC.,"$795,000",43.6411454,79.3813125,3 days
30/07/2024,55 YPRES ROAD,TORONTO,ONTARIO,M6M1P1,WAQAR AFZAL,WELCOME HOME REALTY INC.,"$1,449,900",43.687967,79.4713698,27 days
31/07/2024,54 DEEPWOOD CRESCENT,TORONTO,ONTARIO,M3C1N8,EVAN TANG,CENTERPOINT REALTY INC.,"$1,850,000",43.7360214,79.3363902,43 minutes
30/07/2024,54 PARK STREET,TORONTO,ONTARIO,M1N2N7,MAINUL HASSAN SYED,REALTY 21 INC.,"$1,399,000",43.7106842,79.2552243,13 days
30/07/2024,54 PLUMBROOK CRESCENT,TORONTO,ONTARIO,M1S3Z8,FERDINAND P. FILARDO,RIGHT AT HOME REALTY,"$949,000",43.7909118,79.2435737,15 hours
30/07/2024,54 RAMBLEWOOD DRIVE,TORONTO,ONTARIO,M1C3E1,ALDO TINO UDOVICIC,RE/MAX CROSSROADS REALTY INC.,"$1,500,000",43.7843995,79.1612403,4 days
30/07/2024,54 TOWER DRIVE,TORONTO,ONTARIO,M1R3N9,JAMIE DEMPSTER,RE/MAX HALLMARK REALTY LTD.,"$1,379,000",43.7472602,79.2999656,3 days
01/08/2024,5408 - 197 YONGE STREET,TORONTO,ONTARIO,M5B0C1,SHAWN SYED,RE/MAX HALLMARK REALTY LTD.,"$629,900",43.6534359,79.3791875,
30/07/2024,542 - 20 INN ON THE PARK DRIVE,TORONTO,ONTARIO,M3C0P8,EHSAN EHSAEI,ROYAL LEPAGE YOUR COMMUNITY REALTY,"$1,400,000",43.7191928,79.348761,67 days
01/08/2024,544 - 500 WILSON AVENUE,TORONTO,ONTARIO,M3H5Y9,JONATHAN NHAM,RESIDENTIAL DEVELOPMENT SERVICES INC.,"$616,990",43.7353422,79.4453007,
30/07/2024,545 WOODBINE AVENUE,TORONTO,ONTARIO,M4E2H7,CLIFFORD GONSALVES,HOMELIFE/MIRACLE REALTY LTD,"$1,349,900",43.6760908,79.3085093,32 days
30/07/2024,546 DUFFERIN STREET,TORONTO,ONTARIO,M6K2A7,ROD ORELLANA,RED APPLE REAL ESTATE INC.,"$1,499,000",43.6473139,79.4307744,12 days
30/07/2024,55 DELWOOD DRIVE,TORONTO,ONTARIO,M1L2S8,STEPHEN TRUONG,ROYAL LEPAGE SIGNATURE REALTY,"$1,438,000",43.7156602,79.297261,9 days
30/07/2024,55 FREEMONT AVENUE,TORONTO,ONTARIO,M9P1Y1,FERNANDO PERRI,KELLER WILLIAMS REFERRED URBAN REALTY,"$1,399,000",43.6966547,79.5231342,110 days
01/08/2024,55 HAREWOOD AVENUE,TORONTO,ONTARIO,M1M2R4,MAJIBUR RAHMAN MOLLAH,RE/MAX REALTRON REALTY INC.,"$2,199,000",43.7201679,79.2334625,
03/08/2024,55 PAULART DRIVE,TORONTO,ONTARIO,M9B3V8,VIMAL S PATEL,RE/MAX NOBLECORP REAL ESTATE,"$1,475,000",43.6351155,79.5483426,23 hours
30/07/2024,55 SAM FRUSTAGLIO DRIVE,TORONTO,ONTARIO,M9N3Y6,KAMAL SANDHU,RE/MAX GOLD REALTY INC.,"$1,349,000",43.69851,79.50707,36 days
31/07/2024,55 SAM FRUSTAGLIO DRIVE,TORONTO,ONTARIO,M9N3Y6,KAMAL SANDHU,RE/MAX GOLD REALTY INC.,"$999,000",43.69851,79.50707,27 minutes
30/07/2024,55 SHAUGHNESSY BOULEVARD,TORONTO,ONTARIO,M2J1H9,SIMON TAM,PROMPTON REAL ESTATE SERVICES CORP.,"$2,099,000",43.772476,79.3525167,2 days
03/08/2024,520 - 55 REGENT PARK BOULEVARD,TORONTO,ONTARIO,M5A3H6,PAUL MURRAY,WEST-100 METRO VIEW REALTY LTD.,"$639,000",43.6596211,79.3609576,19 hours
05/08/2024,520 - 525 ADELAIDE STREET W,TORONTO,ONTARIO,M5V1T4,JULIA KRISTINA LUBURIC,ROYAL LEPAGE SIGNATURE REALTY,"$660,000",43.645431,79.4024525,131 days
31/07/2024,520 - 10 CAPREOL COURT,TORONTO,ONTARIO,M5V4B3,VINNY KUMAR,IPRO REALTY LTD.,"$599,900",43.6401979,79.3959363,1 day
30/07/2024,520 - 1 BLOOR STREET,TORONTO,ONTARIO,M4W0A8,DARYL KING,RE/MAX HALLMARK REALTY LTD.,"$1,490,000",43.6701587,79.3862462,17 days
01/08/2024,505 - 689 THE QUEENSWAY,TORONTO,ONTARIO,M8Y1L1,KITA RICHARD NAKABAYASHI,MARKETVISION REAL ESTATE CORPORATION,"$619,000",43.6267139,79.4998522,
05/08/2024,505 GLEBEHOLME BOULEVARD,TORONTO,ONTARIO,M4C1V3,FARIDA JONES,ROYAL LEPAGE FIRST CONTACT REALTY,"$949,500",43.6867328,79.3196574,2 days
03/08/2024,505 RUSSELL HILL ROAD,TORONTO,ONTARIO,M5P2T1,AUDRIS LAU,FIRST CLASS STARLINK REALTY,"$19,699,888",43.7000581,79.4137231,21 hours
05/08/2024,505B - 330 RICHMOND STREET W,TORONTO,ONTARIO,M5V0M4,MARC ATKINS,MARQUIS REAL ESTATE CORPORATION,"$799,990",43.6489309,79.3927925,1 day
03/08/2024,506 - 18 GRAYDON HALL DRIVE,TORONTO,ONTARIO,M3A0A4,PHILIP CHAN,HOMELIFE BROADWAY REALTY INC.,"$548,800",43.7627107,79.3464739,2 days
05/08/2024,506 - 22 EAST HAVEN DRIVE,TORONTO,ONTARIO,M1N0B4,GEOFFREY PATRICK GRACE,RE/MAX HALLMARK REALTY LTD.,"$579,900",43.7045997,79.2518363,3 days
05/08/2024,506 - 32 FOREST MANOR ROAD,TORONTO,ONTARIO,M2J0H2,DOREY SUN,DREAM HOME REALTY INC.,"$569,000",43.7716527,79.3446498,21 hours
05/08/2024,505 - 5949 YONGE STREET,TORONTO,ONTARIO,M2M3V8,JOHN GIDEON,HOUSESIGMA INC.,"$425,000",43.7877117,79.4169953,146 days
31/07/2024,506 - 736 BAY STREET,TORONTO,ONTARIO,M5G2M4,VASKO NEDANOVSKI,RIGHT AT HOME REALTY,"$650,000",43.6594674,79.3855404,39 minutes
03/08/2024,507 - 1250 BRIDLETOWNE CIRCLE,TORONTO,ONTARIO,M1W2V1,PAKEER SAHADEVAN,RE/MAX COMMUNITY REALTY INC.,"$499,000",43.794472,79.3123028,2 days
31/07/2024,507 - 2 SONIC WAY,TORONTO,ONTARIO,M3C0P1,NATASHA HENRY,COLDWELL BANKER THE REAL ESTATE CENTRE,"$729,000",43.7195387,79.3366542,1 day
03/08/2024,507 - 20 BRIN DRIVE,TORONTO,ONTARIO,M8X0B2,FRANCESCO STALTARI,HOMELIFE/5 STAR REALTY LTD.,"$569,000",43.6614939,79.5118181,2 days
01/08/2024,508 - 125 VILLAGE GREEN SQUARE,TORONTO,ONTARIO,M1S0G3,AH MIAO M. C. CHEN,HOMELIFE/REALTY ONE LTD.,"$639,000",43.7775116,79.2812424,
03/08/2024,508 - 318 KING STREET E,TORONTO,ONTARIO,M5A0C1,CHRIS LEE,RE/MAX ATRIUM HOME REALTY,"$570,000",43.6528,79.3633809,3 hours
31/07/2024,508 - 3303 DON MILLS ROAD W,TORONTO,ONTARIO,M2J4T6,HAMID REZA SAFIPOOR,RE/MAX HALLMARK REALTY LTD.,"$715,000",43.7918757,79.3534566,2 days
01/08/2024,508 - 35 BASTION STREET,TORONTO,ONTARIO,M5V3N2,ELENA SARADIDIS,ROYAL LEPAGE SIGNATURE REALTY,"$780,000",43.6372259,79.4035587,
05/08/2024,507 - 11 WELLESLEY STREET W,TORONTO,ONTARIO,M4Y0G4,LEO SHIU,SUPERSTARS REALTY LTD.,"$688,000",43.6645977,79.3852242,3 days
03/08/2024,505 - 410 QUEENS QUAY,TORONTO,ONTARIO,M5V3T1,ZARINA GIRACH,RE/MAX HALLMARK REALTY LTD.,"$534,900",43.6379252,79.3914427,2 days
05/08/2024,505 - 4 LOWTHER AVENUE,TORONTO,ONTARIO,M5R1C6,TODD COCHRANE SKINNER,CHESTNUT PARK REAL ESTATE LIMITED,"$4,450,000",43.6711012,79.3957252,181 days
03/08/2024,505 - 285 AVENUE ROAD,TORONTO,ONTARIO,M4V2G8,LEEANNE WELD,ROYAL LEPAGE/J & D DIVISION,"$2,499,000",43.6788787,79.3980163,2 days
01/08/2024,501 - 5940 YONGE STREET,TORONTO,ONTARIO,M2M4M6,CHERIE YAP,HOMELIFE/MIRACLE REALTY LTD,"$609,000",43.787401,79.4181228,
30/07/2024,501 - 80 CUMBERLAND STREET,TORONTO,ONTARIO,M5R3V1,NORA CHAN,CENTURY 21 ATRIA REALTY INC.,"$1,450,000",43.6706282,79.3903517,27 days
03/08/2024,5010 - 11 WELLESLEY STREET W,TORONTO,ONTARIO,M4Y1E8,TOM YIN,SUNSHINE REALTY BROKERAGE INC.,"$519,000",43.6645977,79.3852242,2 days
05/08/2024,502 - 280 HOWLAND AVENUE,TORONTO,ONTARIO,M5R0C3,DYANA DRISCOLL,ROYAL LEPAGE REALTY PLUS,"$1,086,666",43.6737266,79.4122197,127 days
03/08/2024,502 - 5 CONCORDE PLACE,TORONTO,ONTARIO,M3C3M8,KESH SAYWACK,KELLER WILLIAMS REFERRED URBAN REALTY,"$675,000",43.729872,79.3272799,2 days
03/08/2024,502 - 650 MOUNT PLEASANT ROAD,TORONTO,ONTARIO,M4S2N5,ALIREZA SOLTANI HAGHIGHI,ROYAL LEPAGE YOUR COMMUNITY REALTY,"$798,000",43.7046042,79.38901,2 days
31/07/2024,503 - 295 ADELAIDE STREET W,TORONTO,ONTARIO,M5V0L4,GARY K SUN,POWER 7 REALTY,"$668,000",43.6476752,79.390532,2 days
30/07/2024,503 - 33 HARBOUR SQUARE,TORONTO,ONTARIO,M5J2G2,TYLER COHEN,RE/MAX REALTRON BARRY COHEN HOMES INC.,"$1,499,000",43.639944,79.3772596,7 days
05/08/2024,503 - 555 WILSON HEIGHTS BOULEVARD,TORONTO,ONTARIO,M3H6B5,ELI RASTIKHAH,CENTURY 21 HERITAGE GROUP LTD.,"$588,800",43.751544,79.456249,173 days
05/08/2024,503 - 588 ANNETTE STREET,TORONTO,ONTARIO,M6S2C4,FEEFA KHAN,RE/MAX REALTY SERVICES INC.,"$1,189,000",43.6598397,79.4816706,2 days
03/08/2024,503 - 600 REXDALE BOULEVARD,TORONTO,ONTARIO,M9W6T4,TINA MANDARELLO,YOUR HOME SOLD GUARANTEED REALTY IMPERIUM,"$629,000",43.7212849,79.6100731,1 day
30/07/2024,503 DAVENPORT ROAD,TORONTO,ONTARIO,M4V1B8,AMY FRANCO,ALLY COMMERCIAL R.E. INC.,"$1,495,000",43.6775341,79.4071542,118 days
31/07/2024,504 - 200 SUDBURY STREET,TORONTO,ONTARIO,M6H0H1,IVAN LAMOTCHKINE,RE/MAX REALTRON REALTY INC.,"$779,900",43.6421431,79.4264907,1 day
01/08/2024,504 - 2A CHURCH STREET,TORONTO,ONTARIO,M5E0E1,ARSHAD HUSSAIN,WORLD CLASS REALTY POINT,"$519,900",43.6468734,79.3733061,
05/08/2024,505 - 10 MUIRHEAD ROAD,TORONTO,ONTARIO,M2J4P9,DARYL KING,RE/MAX HALLMARK REALTY LTD.,"$590,000",43.7782852,79.338438,3 days
03/08/2024,505 - 1121 BAY STREET,TORONTO,ONTARIO,M5S3L9,JEFF JAFFARI,RE/MAX HALLMARK REALTY LTD.,"$630,000",43.6679864,79.3885486,2 days
30/07/2024,505 - 155 YORKVILLE AVENUE,TORONTO,ONTARIO,M5R0B4,MAURICE ANDERSON,ROYAL LEPAGE SIGNATURE REALTY,"$548,000",43.6703838,79.3944199,3 hours
05/08/2024,508 - 60 BYNG AVENUE,TORONTO,ONTARIO,M2N7K3,WENDY ZHENG,RE/MAX REALTRON WENDY ZHENG REALTY,"$618,000",43.7773991,79.4128,7 hours
31/07/2024,420 - 50 ANN O'REILLY ROAD S,TORONTO,ONTARIO,M2J0C9,CHUN KEUNG OR,CENTURY 21 ATRIA REALTY INC.,"$555,000",43.7744217,79.3299915,1 day
31/07/2024,509 - 1 LEE CENTRE DRIVE,TORONTO,ONTARIO,M1H3J2,LINDA Y.S. LAU,RIGHT AT HOME REALTY,"$570,000",43.7813124,79.2452782,3 days
05/08/2024,509 - 15 SINGER COURT,TORONTO,ONTARIO,M2K0B1,PAUL JONE,VISAR REALTY INC.,"$598,000",43.7694893,79.3702095,128 days
31/07/2024,514 - 5 SHADY GOLFWAY ROAD,TORONTO,ONTARIO,M3C3A5,MONIR ISLAM,RE/MAX ACE REALTY INC.,"$549,000",43.7180433,79.3260926,23 hours
31/07/2024,515 - 323 RICHMOND STREET E,TORONTO,ONTARIO,M5A4R3,STEVEN LESLIE GREEN,ROYAL LEPAGE REAL ESTATE SERVICES LTD.,"$525,000",43.6533464,79.3684691,22 hours
30/07/2024,516 - 2550 LAWRENCE AVENUE E,TORONTO,ONTARIO,M1P4Z3,JACKY WU,"T-ONE GROUP REALTY INC.,","$539,900",43.7516958,79.2663985,5 hours
31/07/2024,517 - 169 FORT YORK BOULEVARD,TORONTO,ONTARIO,M5V0C8,MICHAEL ANDREW ROY,SUTTON GROUP OLD MILL REALTY INC.,"$535,000",43.6384989,79.4009491,3 days
05/08/2024,517 - 875 THE QUEENSWAY,TORONTO,ONTARIO,M8Z1N8,NIKKI GOODMAN,MILBORNE REAL ESTATE INC.,"$530,990",43.623762,79.5136315,2 days
01/08/2024,518 - 19 WESTERN BATTERY ROAD,TORONTO,ONTARIO,M6K0E3,SUNG JUNG WOO,RE/MAX CONDOS PLUS CORPORATION,"$639,000",43.6397197,79.4113714,
01/08/2024,518 - 27 REAN DRIVE,TORONTO,ONTARIO,M2K0A6,SHERRY LI,RE/MAX CROSSROADS REALTY INC.,"$629,000",43.7677437,79.38227,
05/08/2024,514 - 3220 SHEPPARD AVENUE E,TORONTO,ONTARIO,M1T3K3,SAMUEL GALLOWAY,RARE REAL ESTATE,"$780,000",43.7780207,79.3126027,21 hours
31/07/2024,518 - 270 WELLINGTON STREET W,TORONTO,ONTARIO,M5V3P5,CHRISTOPHER ANDREW BIBBY,RE/MAX HALLMARK BIBBY GROUP REALTY,"$549,900",43.6451021,79.3908361,35 minutes
03/08/2024,518 - 872 SHEPPARD AVENUE W,TORONTO,ONTARIO,M3H5V5,LEO KIM,HOME STANDARDS BRICKSTONE REALTY,"$700,000",43.7524082,79.4546165,1 day
03/08/2024,519 - 1 MASSEY SQUARE,TORONTO,ONTARIO,M4C5L4,JIANWU WU,TRUSTWELL REALTY INC.,"$599,000",43.696526,79.294243,1 day
30/07/2024,52 CREE AVENUE,TORONTO,ONTARIO,M1M1Z6,TINA BAHRAMI,ROYAL LEPAGE SIGNATURE REALTY,"$1,350,000",43.7315359,79.2320201,55 days
31/07/2024,52 GERIGS STREET,TORONTO,ONTARIO,M1L0J4,DAVID WEI,EASTIDE REALTY,"$950,800",43.71696,79.28106,2 days
05/08/2024,52 GRANTBROOK STREET N,TORONTO,ONTARIO,M2R2E9,HENRY ROJAS,CASTLEMORE REAL ESTATE LIMITED,"$3,499,000",43.7795469,79.4328323,141 days
30/07/2024,52 HAMPTONBROOK DRIVE,TORONTO,ONTARIO,M9P1A1,DAN STEVENS,MILBORNE REAL ESTATE INC.,"$1,500,000",43.6813297,79.5380415,7 days
30/07/2024,52 YATESBURY ROAD,TORONTO,ONTARIO,M2H1E9,LINDA WANG,BAY STREET GROUP INC.,"$1,160,000",43.8006171,79.3760789,1 day
05/08/2024,518 - 83 MONDEO DRIVE,TORONTO,ONTARIO,M1P5B6,ROBERT J. BUCKLER,CENTURY 21 HERITAGE GROUP LTD.,"$814,900",43.7663112,79.2880385,40 minutes
05/08/2024,514 - 15 QUEENS QUAY E,TORONTO,ONTARIO,M4J1Y1,LAURA INWARD,KELLER WILLIAMS ADVANTAGE REALTY,"$839,900",43.6415007,79.3740197,143 days
31/07/2024,512 - 889 BAY STREET,TORONTO,ONTARIO,M5S3K5,SHERRY DABIR,ROYAL LEPAGE YOUR COMMUNITY REALTY,"$699,000",43.6629569,79.3862565,1 day
03/08/2024,512 - 485 ROSEWELL AVENUE,TORONTO,ONTARIO,M4R2J2,EMILY WANG,BEST UNION REALTY INC.,"$949,900",43.7219409,79.4130308,2 days
01/08/2024,509 - 253 MERTON STREET,TORONTO,ONTARIO,M4S3H2,DON GAULT,SOTHEBY'S INTERNATIONAL REALTY CANADA,"$639,000",43.6974417,79.3888409,
03/08/2024,51 BLUE FOREST DRIVE,TORONTO,ONTARIO,M3H4W6,DAVIDA WARSHAGER,"INTERNATIONAL REALTY FIRM, INC.","$2,227,000",43.7672019,79.4537345,1 day
30/07/2024,51 DENVALE ROAD,TORONTO,ONTARIO,M4B3B3,SUSAN GUCCI,ROYAL LEPAGE SIGNATURE SUSAN GUCCI REALTY,"$1,375,000",43.7068063,79.3184084,5 days
05/08/2024,51 LADY BOWER CRESCENT,TORONTO,ONTARIO,M1B4R3,KIRU THANGAVELAUTHAM,HOMELIFE/FUTURE REALTY INC.,"$949,900",43.815451,79.2198667,3 hours
01/08/2024,510 - 10 EDGECLIFF GOLFWAY,TORONTO,ONTARIO,M3C3A3,AZEEM H JADAVJI,EXP REALTY,"$649,900",43.719224,79.326419,
01/08/2024,510 - 190 MANITOBA STREET,TORONTO,ONTARIO,M8Y4G7,GARRY SINGH,CIRCLE REAL ESTATE,"$3,200/MONTHLY",43.6241474,79.491919,
01/08/2024,510 - 2522 KEELE STREET,TORONTO,ONTARIO,M6L2N8,JEFFREY STARR,RE/MAX HALLMARK REALTY LTD.,"$640,000",43.7148902,79.4796924,
01/08/2024,510 - 260 MERTON STREET,TORONTO,ONTARIO,M4S3G2,JESSE STUART TAYLOR,UNRESERVED,"$749,000",43.6979716,79.3880181,
05/08/2024,510 - 3237 BAYVIEW AVENUE,TORONTO,ONTARIO,M2K2J7,SANDRA SOLDERA,EXP REALTY,"$669,800",43.7899719,79.3926166,2 days
01/08/2024,510 - 625 THE WEST MALL,TORONTO,ONTARIO,M9C4W9,ALLEN CHI-HO CHUNG,PETER CHUNG REAL ESTATE LTD.,"$635,000",43.6552305,79.5706954,
01/08/2024,510 - 75 DALHOUSIE STREET,TORONTO,ONTARIO,M5B2R9,CHRISTIAN DUFFIELD,SAGE REAL ESTATE LIMITED,"$479,900",43.6554873,79.3759283,
05/08/2024,5102 - 183 WELLINGTON STREET W,TORONTO,ONTARIO,M5V0A1,STANLEY YAU,CENTURY 21 KING'S QUAY REAL ESTATE INC.,"$21,388,000",43.6454133,79.3872946,227 days
05/08/2024,5102 - 33 BAY STREET,TORONTO,ONTARIO,M5J2Z3,TODD ADAIR,CAYMAN MARSHALL INTERNATIONAL REALTY INC.,"$5,990,000",43.6427875,79.3771823,131 days
30/07/2024,5105 - 108 PETER STREET,TORONTO,ONTARIO,M5V0W2,RILEY BOYKO,IRISE,"$1,498,800",43.6476915,79.3933074,33 days
05/08/2024,5109 - 14 YORK STREET,TORONTO,ONTARIO,M5J0B1,DIMITRIOS KAKARELIS,RIGHT AT HOME REALTY,"$698,888",43.6421544,79.381624,170 days
05/08/2024,511 - 212 EGLINTON AVENUE E,TORONTO,ONTARIO,M4P0A3,MIKE CATTARUZZA,NEW ERA REAL ESTATE,"$549,888",43.7082953,79.3919709,1 day
05/08/2024,512 - 160 FLEMINGTON ROAD,TORONTO,ONTARIO,M6A2N9,WENDY FACCHINI,RE/MAX REALTRON REALTY INC.,"$574,900",43.7230841,79.4478657,1 day
05/08/2024,509 - 11 BRUNEL COURT,TORONTO,ONTARIO,M5V3Y3,SPENCER EYMAN,REAL ESTATE HOMEWARD,"$499,900",43.6393683,79.3933145,1 day
30/07/2024,42 YPRES ROAD,TORONTO,ONTARIO,M6M1N9,IMRAN AHMAD,RE/MAX REAL ESTATE CENTRE INC.,"$1,499,000",43.6884382,79.4709097,38 days
30/07/2024,42 LINTON AVENUE,TORONTO,ONTARIO,M1N1W6,HICHAM S FARHAT,CENTURY 21 LEADING EDGE REALTY INC.,"$1,439,000",43.6866706,79.2844126,13 days
01/08/2024,42 KAREN ROAD,TORONTO,ONTARIO,M3A3L6,JOHN GAO,MEHOME REALTY (ONTARIO) INC.,"$1,599,000",43.7629872,79.3395282,
31/07/2024,3308 - 95 MCMAHON DRIVE,TORONTO,ONTARIO,M2K0H2,SIAMAK SHAKIBI KENARSARI,CENTURY 21 HERITAGE GROUP LTD.,"$1,115,000",43.7667106,79.3723553,1 day
30/07/2024,3312 - 275 YORKLAND ROAD,TORONTO,ONTARIO,M2J0B4,CHANTELLE NG,HOMELIFE GOLCONDA REALTY INC.,"$558,000",43.774659,79.3368788,1 day
30/07/2024,3314 - 35 MERCER STREET,TORONTO,ONTARIO,M5V0V1,MARIO SIMECKI,CENTURY 21 BEST SELLERS LTD.,"$1,499,999",43.6456433,79.3905785,10 days
05/08/2024,3315 - 115 BLUE JAYS WAY,TORONTO,ONTARIO,M5V0N4,MEGGIE YAN,MASTER'S TRUST REALTY INC.,"$560,000",43.6457205,79.3918198,139 days
05/08/2024,3315 - 45 CHARLES STREET E,TORONTO,ONTARIO,M4Y0B8,JORDAN MARTIN,RIGHT AT HOME REALTY,"$749,999",43.6689111,79.383977,1 day
01/08/2024,335 LYTTON BOULEVARD,TORONTO,ONTARIO,M5N1R9,SUZY GOLDSTEIN,SUTTON GROUP-ADMIRAL REALTY INC.,"$9,810,000",43.7125989,79.4174481,
30/07/2024,339 HARVIE AVENUE,TORONTO,ONTARIO,M6E4L4,CARLOS OLIVEIRA FERREIRA,HOMELIFE/CITY HILL REALTY INC.,"$1,399,000",43.6886564,79.4546218,6 days
31/07/2024,3307 - 8 CHARLOTTE STREET,TORONTO,ONTARIO,M5V0K4,SAVANNAH WENG,RE/MAX DASH REALTY,"$775,000",43.6460181,79.3938391,3 days
05/08/2024,34 HENBURY PLACE,TORONTO,ONTARIO,M1B2S8,JOSSI JOSEPH KARAKKATTU,RIGHT AT HOME REALTY,"$839,000",43.8037493,79.2009425,1 day
01/08/2024,34 RIVERLEA DRIVE,TORONTO,ONTARIO,M9P2H4,DOMENIC SCOLIERI,RE/MAX WEST REALTY INC.,"$1,539,000",43.6991919,79.5238322,
31/07/2024,34 SHIPPIGAN CRESCENT,TORONTO,ONTARIO,M2J2G2,KATRINA ZHENG,REAL ONE REALTY INC.,"$1,499,000",43.7776972,79.3565221,15 hours
31/07/2024,34 TRUEMAN AVENUE,TORONTO,ONTARIO,M8Z5A2,KATHY VUKOBRAT,EXP REALTY,"$1,335,000",43.6241354,79.5244174,23 hours
30/07/2024,340 - 18 MONDEO DRIVE,TORONTO,ONTARIO,M1P5C8,JORA SINGH GARCHA,RE/MAX GOLD REALTY INC.,"$539,900",43.7642438,79.289862,2 days
05/08/2024,3401 - 15 MERCER STREET,TORONTO,ONTARIO,M5V1H2,MIKE ABDOOS,THE REAL ESTATE OFFICE INC.,"$1,058,000",43.6455696,79.3901536,155 days
31/07/2024,3402 - 2181 YONGE STREET,TORONTO,ONTARIO,M4S3H7,KIM VALBERG,ROYAL LEPAGE/J & D DIVISION,"$1,588,000",43.705278,79.3973551,40 minutes
05/08/2024,3402 - 88 HARBOUR STREET,TORONTO,ONTARIO,M5J0C3,IVY CHEE,CENTURY 21 KING'S QUAY REAL ESTATE INC.,"$620,000",43.6418534,79.3790565,122 days
30/07/2024,34 KNOX AVENUE,TORONTO,ONTARIO,M9L2M3,PAULO CONDECO,ROYAL LEPAGE TERREQUITY REALTY,"$1,498,000",43.7583118,79.5726774,41 days
03/08/2024,3404 - 159 DUNDAS STREET E,TORONTO,ONTARIO,M5B0A9,MICHELLE YING XIA,RIGHT AT HOME REALTY,"$485,000",43.6568285,79.3750152,3 hours
30/07/2024,3307 - 27 MCMAHON DRIVE,TORONTO,ONTARIO,M2K0J2,RANDY TAN,PROMPTON REAL ESTATE SERVICES CORP.,"$1,421,000",43.76633,79.37366,19 days
30/07/2024,3306 - 65 HARBOUR SQUARE,TORONTO,ONTARIO,M5J2L4,LESLIE GRAY,PG DIRECT REALTY LTD.,"$1,399,900",43.6397966,79.3776647,59 days
01/08/2024,322 - 80 FRONT STREET E,TORONTO,ONTARIO,M5E1T4,JUDITH FOOTE,RE/MAX PRIME PROPERTIES - UNIQUE GROUP,"$1,450,000",43.6492034,79.3727345,
03/08/2024,322 HILLSDALE AVENUE E,TORONTO,ONTARIO,M4S1T8,SAM SHENG,ANJIA REALTY,"$1,380,000",43.7055982,79.388072,12 minutes
05/08/2024,322B EMPRESS AVENUE,TORONTO,ONTARIO,M2N3V4,BRIAN ZHANG,MASTER'S TRUST REALTY INC.,"$3,188,000",43.7733235,79.3957548,1 day
31/07/2024,323 - 6 DRUMMOND STREET,TORONTO,ONTARIO,M8V1Y8,MICHAEL ADAM MAJESKI,RE/MAX SPECIALISTS MAJESKI GROUP,"$819,000",43.6137372,79.4981229,23 hours
31/07/2024,324 WOODFIELD ROAD,TORONTO,ONTARIO,M4L2X1,IVANA ROCHA,ORION REALTY CORPORATION,"$949,000",43.6731419,79.3247848,23 hours
30/07/2024,325 DUDLEY AVENUE,TORONTO,ONTARIO,M2N4X5,JAY KISHORE RANA,CENTURY 21 TITANS REALTY INC.,"$1,368,000",43.7769798,79.4077331,63 days
05/08/2024,328 - 510 KING STREET E,TORONTO,ONTARIO,M5A1M1,TREVOR MAXWELL BOND,BOSLEY REAL ESTATE LTD.,"$598,000",43.6563726,79.3572746,4 days
05/08/2024,3307 - 138 DOWNES STREET,TORONTO,ONTARIO,M5E0E4,DANNY ZHANG,HOMELIFE LANDMARK REALTY INC.,"$1,099,000",43.6444983,79.3710155,1 day
05/08/2024,33 ANDREW AVENUE,TORONTO,ONTARIO,M1M3H1,JACQUIE OTHEN,RE/MAX PRIME PROPERTIES,"$799,000",43.7228162,79.2453554,204 days
05/08/2024,33 HOPPERTON DRIVE,TORONTO,ONTARIO,M2L2S5,WILSON CHEN,BAY STREET GROUP INC.,"$2,180,000",43.7627809,79.3721393,139 days
30/07/2024,33 MORGAN AVENUE,TORONTO,ONTARIO,M8Y2Z9,PARAS .P. BHATIA,ROYAL LEPAGE FLOWER CITY REALTY,"$1,300,000",43.6245858,79.5004908,23 days
30/07/2024,33 PAKENHAM DRIVE,TORONTO,ONTARIO,M9W4B2,BORIS GUERDJIKOV,RE/MAX PREMIER INC.,"$1,039,000",43.7250973,79.5607128,5 hours
05/08/2024,33 URBANDALE AVENUE,TORONTO,ONTARIO,M2M2G9,ANITA MUI,CENTURY 21 ATRIA ANITA MUI REALTY INC.,"$2,380,000",43.7915297,79.4004151,121 days
05/08/2024,33 VERNE CRESCENT,TORONTO,ONTARIO,M1B2Y4,NIRO SIVASUBRAMANIAM,HOMELIFE/FUTURE REALTY INC.,"$995,000",43.7957216,79.2385402,2 days
30/07/2024,3301 - 2 ANNDALE DRIVE,TORONTO,ONTARIO,M2N0G5,WENDY LI,BAY STREET INTEGRITY REALTY INC.,"$1,388,800",43.7607405,79.4084851,56 days
05/08/2024,3306 - 14 YORK STREET,TORONTO,ONTARIO,M5J0B1,BAHADOR SOODBAKHSH,HOMELIFE/BAYVIEW REALTY INC.,"$709,000",43.641716,79.3819491,201 days
03/08/2024,33 FIELDSIDE DRIVE,TORONTO,ONTARIO,M1V3C4,SARVAN KANGESU,HOMELIFE GALAXY REAL ESTATE LTD.,"$999,000",43.8168832,79.2653106,18 hours
03/08/2024,3405 - 18 YONGE STREET,TORONTO,ONTARIO,M5E1Z8,DENNIS HO,HOMELIFE GOLD PACIFIC REALTY INC.,"$2,300/MONTHLY",43.6446048,79.3765047,20 hours
31/07/2024,3406 - 8 CUMBERLAND STREET,TORONTO,ONTARIO,M4W0B6,LYNNE MEREDITH ELKIND,CHESTNUT PARK REAL ESTATE LIMITED,"$1,499,000",43.6710845,79.3877873,42 minutes
05/08/2024,3407 - 395 BLOOR STREET E,TORONTO,ONTARIO,M4W1H7,DAVID ZHU,AIMHOME REALTY INC.,"$858,000",43.6719746,79.3774195,122 days
03/08/2024,3507 - 1928 LAKESHORE BOULEVARD W,TORONTO,ONTARIO,M6S0B1,UPSHAM KAMBOJ,STRATA REAL ESTATE,"$749,000",43.6357637,79.4679304,17 hours
01/08/2024,3509 - 5 MARINER TERRACE,TORONTO,ONTARIO,M5V3V6,KI KIM,ROYAL LEPAGE SUPREME REALTY,"$635,000",43.6398517,79.390439,
30/07/2024,351 BURNHAMTHORPE ROAD,TORONTO,ONTARIO,M9B2A5,GILLIAN SARAH COUSIN,RE/MAX ABOUTOWNE REALTY CORP.,"$1,350,000",43.6482965,79.5523881,35 days
01/08/2024,3516 - 19 BATHURST STREET,TORONTO,ONTARIO,M5V0N2,VICKY HSIU-HUI HSU,RE/MAX WEST VICKY HSU GROUP REALTY,"$648,000",43.6375621,79.3996469,
30/07/2024,3517 ST CLAIR AVENUE E,TORONTO,ONTARIO,M1K1L4,JONATHAN EDWARDS,RE/MAX URBAN TORONTO,"$1,399,900",43.7156589,79.2642646,84 days
05/08/2024,3532 - 5 MABELLE AVENUE,TORONTO,ONTARIO,M9A0C8,FENGXIA SHIRLEY JI,RE/MAX ELITE REAL ESTATE,"$580,000",43.6468335,79.5254409,23 hours
05/08/2024,3533 - 5 MABELLE AVENUE,TORONTO,ONTARIO,M9A0C8,FENGXIA SHIRLEY JI,RE/MAX ELITE REAL ESTATE,"$658,000",43.6468335,79.5254409,3 days
05/08/2024,3506 - 195 REDPATH AVENUE,TORONTO,ONTARIO,M4P0E4,CONRAD LEUNG,LANDSTARS 360 REALTY INC.,"$629,000",43.7104596,79.3936064,4 days
30/07/2024,3547 ELLESMERE ROAD,TORONTO,ONTARIO,M1C1H5,SHAN PERINPANATHAN,ROYAL LEPAGE IGNITE REALTY,"$1,500,000",43.7891321,79.1765537,21 days
05/08/2024,357 HOLLYWOOD AVENUE,TORONTO,ONTARIO,M2N3L3,BING WANG,AIMHOME REALTY INC.,"$2,080,000",43.7698484,79.3919603,131 days
30/07/2024,36 - 208 NIAGARA STREET,TORONTO,ONTARIO,M6J3W5,NEIL ROBB,RIGHT AT HOME REALTY,"$1,450,000",43.6432892,79.4078747,20 days
30/07/2024,36 HARTSDALE DRIVE,TORONTO,ONTARIO,M9R2S5,JOHN TOKATLIDIS,ROYAL LEPAGE ELITE REALTY,"$1,329,000",43.684755,79.5438613,6 days
30/07/2024,36 LANYARD ROAD,TORONTO,ONTARIO,M9M1Y7,SAEED AHMAD ZIA,SAVE MAX GOLD ESTATE REALTY,"$1,399,900",43.7477441,79.5438125,38 days
30/07/2024,36 LESLIE STREET,TORONTO,ONTARIO,M4M3C4,NARGES SIADATI-FINI,MANOR HILL REALTY INC.,"$1,425,000",43.6610054,79.3294427,6 days
30/07/2024,36 MARATHON CRESCENT,TORONTO,ONTARIO,M2R2L7,MOHAMMAD AGHAMIRI,FAMILY HOME REALTY INC,"$1,499,000",43.7832732,79.4423818,122 days
30/07/2024,3601 - 20 LOMBARD STREET,TORONTO,ONTARIO,M5C0A7,HARRY LUO,REAL ONE REALTY INC.,"$648,000",43.6516524,79.3769603,2 days
30/07/2024,355 LANSDOWNE AVENUE,TORONTO,ONTARIO,M6H3Y2,HEATHER HADDEN,BERKSHIRE HATHAWAY HOMESERVICES TORONTO,"$1,499,000",43.6519037,79.440137,35 days
01/08/2024,3503 - 1 THE ESPLANADE,TORONTO,ONTARIO,M5E0A8,LAHAV REZNIK,FOREST HILL REAL ESTATE INC.,"$649,000",43.6458823,79.375992,
05/08/2024,3502 - 115 MCMAHON DRIVE,TORONTO,ONTARIO,M2K0E3,CLARENCE LI,MEHOME REALTY (ONTARIO) INC.,"$623,000",43.7669863,79.371042,2 days
31/07/2024,35 PHILPOTT GARDENS,TORONTO,ONTARIO,M4E0A8,ANDREW DOUMONT,KELLER WILLIAMS REFERRED URBAN REALTY,"$999,000",43.6875808,79.2908102,1 day
30/07/2024,3408 - 33 HARBOUR SQUARE,TORONTO,ONTARIO,M5J2G2,ASLI OZDEMIR,SOTHEBY'S INTERNATIONAL REALTY CANADA,"$1,498,000",43.639944,79.3772596,35 days
30/07/2024,341 PLEASANT AVENUE,TORONTO,ONTARIO,M2R2R3,JOSEPH SOER,SUTTON GROUP-ADMIRAL REALTY INC.,"$1,438,888",43.7884526,79.4381241,75 days
30/07/2024,342B MAPLEHURST AVENUE N,TORONTO,ONTARIO,M2N3C6,JING ZHANG,RE/MAX IMPERIAL REALTY INC.,"$1,499,000",43.7660921,79.3952775,20 days
03/08/2024,343 - 15 MERCHANT'S WHARF WAY,TORONTO,ONTARIO,M5A0V8,VLADLEN KASHPAR,ROYAL LEPAGE YOUR COMMUNITY REALTY,"$638,800",43.6452569,79.3642909,2 days
31/07/2024,344 - 1100 LANSDOWNE AVENUE,TORONTO,ONTARIO,M6H4K1,ANDREW IPEKIAN,KELLER WILLIAMS REFERRED URBAN REALTY,"$1,098,000",43.6706438,79.4484188,27 minutes
30/07/2024,344 WELLESLEY STREET E,TORONTO,ONTARIO,M4X1H3,RYAN CHRISTOPHER WYKES,REAL BROKER ONTARIO LTD.,"$1,500,000",43.6687392,79.367512,6 days
03/08/2024,344 WELLESLEY STREET E,TORONTO,ONTARIO,M4X1H3,RYAN CHRISTOPHER WYKES,REAL BROKER ONTARIO LTD.,"$1,695,000",43.6687392,79.367512,1 day
30/07/2024,346 PARK LAWN ROAD UNIT# 2,TORONTO,ONTARIO,M8Y3K4,ROBERT PIPERNI,EXP REALTY OF CANADA INC,"$1,499,000",43.6391995,79.49476162,25 days
31/07/2024,347 GLADSTONE AVENUE,TORONTO,ONTARIO,M6H3H5,MELINDA WU,RE/MAX ATRIUM HOME REALTY,"$1,750,000",43.6534699,79.4309822,3 days
30/07/2024,347 LANSDOWNE AVENUE,TORONTO,ONTARIO,M6H3Y2,BOB ODANOVIC,RE/MAX ULTIMATE REALTY INC.,"$1,399,900",43.6516727,79.4400649,21 days
31/07/2024,35 - 140 BROADVIEW AVENUE,TORONTO,ONTARIO,M4M0A8,VIVIAN SHAH,RE/MAX REALTRON REALTY INC.,"$800,000",43.6598994,79.3504473,22 hours
31/07/2024,35 BLACKTOFT DRIVE,TORONTO,ONTARIO,M1B2M7,FILONA MELVIN THUSHYANTHI,HOMELIFE GALAXY REAL ESTATE LTD.,"$799,000",43.8052469,79.1750536,4 days
30/07/2024,35 CONDOR AVENUE,TORONTO,ONTARIO,M4J3M5,MADASRA BIBI,RIGHT AT HOME REALTY,"$2,300,000",43.6751411,79.3347902,1 day
03/08/2024,35 CONDOR AVENUE,TORONTO,ONTARIO,M4J3M5,MADASRA BIBI,RIGHT AT HOME REALTY,"$2,154,000",43.6751411,79.3347902,16 hours
30/07/2024,35 GLENEAGLE CRESCENT,TORONTO,ONTARIO,M2J3H4,JANEY LUONG,ROYAL LEPAGE SIGNATURE REALTY,"$1,438,000",43.7839995,79.3446868,47 days
31/07/2024,35 MOON VALLEY DRIVE,TORONTO,ONTARIO,M9W3N5,JAMES SARKISI SARDAROUD,CENTURY 21 PERCY FULTON LTD.,"$1,118,000",43.7281957,79.5851594,23 hours
30/07/2024,35 PARK HILL ROAD,TORONTO,ONTARIO,M6C3M8,SAMANTHA SERVELLO,YOUR HOME SOLD GUARANTEED REALTY INTERCITY PLUS INC.,"$1,399,999",43.7000797,79.437685,5 days
03/08/2024,322 - 500 RICHMOND STREET W,TORONTO,ONTARIO,M5V3N4,FRANCESCO JR. LARDI,RE/MAX CONDOS PLUS CORPORATION,"$649,900",43.6475617,79.3991385,2 days
05/08/2024,322 - 19 WESTERN BATTERY ROAD,TORONTO,ONTARIO,M6K0E3,ALEX MOHR,PINE REAL ESTATE,"$585,000",43.6397197,79.4113714,158 days
05/08/2024,3212 - 275 YORKLAND ROAD,TORONTO,ONTARIO,M2J0B4,STEVEN KIM,REAL BROKER ONTARIO LTD.,"$529,000",43.7746398,79.3369485,3 days
05/08/2024,3208 - 955 BAY STREET,TORONTO,ONTARIO,M5S0C6,BING WANG,AIMHOME REALTY INC.,"$1,688,000",43.6646319,79.3869529,128 days
31/07/2024,3104 - 125 VILLAGE GREEN SQUARE,TORONTO,ONTARIO,M1S0G3,PAUL CHI-CHOW CHENG,EXP REALTY,"$689,000",43.7775233,79.2812387,3 days
05/08/2024,3105 - 6 SONIC WAY,TORONTO,ONTARIO,M3C0P1,WILSON NG,CENTURY 21 ATRIA REALTY INC.,"$1,380,000",43.7198514,79.3368302,123 days
01/08/2024,3105 - 8 THE ESPLANADE,TORONTO,ONTARIO,M5E0A6,ALEX JIAO,BAY STREET GROUP INC.,"$1,180,000",43.6460366,79.3763206,
05/08/2024,3105 - 99 HARBOUR SQUARE,TORONTO,ONTARIO,M5J2H2,PETER ALEXANDER ZAJNER,RE/MAX CONDOS PLUS CORPORATION,"$549,900",43.6395634,79.3793656,3 days
05/08/2024,3106 - 108 PETER STREET,TORONTO,ONTARIO,M5V0W2,ZHIYU XIE,JDL REALTY INC.,"$878,000",43.6476915,79.3933074,4 days
30/07/2024,3106 - 390 CHERRY STREET,TORONTO,ONTARIO,M5A0E2,JIM MO,RE/MAX REALTRON JIM MO REALTY,"$1,489,800",43.6505536,79.3573819,102 days
05/08/2024,3109 - 180 UNIVERSITY AVENUE,TORONTO,ONTARIO,M5H0A2,PAMELA BADER,LUXURY INTERNATIONAL REAL ESTATE INC.,"$1,990,000",43.6488268,79.386259,143 days
30/07/2024,3102 - 55 MERCER STREET,TORONTO,ONTARIO,M5V0W4,SARAH LEE,UNION CAPITAL REALTY,"$1,425,888",43.6452979,79.3917205,66 days
05/08/2024,311 - 1 FALAISE ROAD,TORONTO,ONTARIO,M1E0B9,VANESSA HOPMAN,"KELLER WILLIAMS ENERGY REAL ESTATE, BROKERAGE","$474,900",43.7693628,79.1889544,1 day
01/08/2024,311 - 35 STRANGFORD LANE,TORONTO,ONTARIO,M1L0E5,MARTIN RUBENSTEIN,HOMELIFE/REALTY ONE LTD.,"$629,000",43.7098984,79.2948133,
05/08/2024,311 - 600 EGLINTON AVENUE E,TORONTO,ONTARIO,M4P1P3,SEVAG KALTAGIAN,ENVOY CAPITOL REALTY INC.,"$649,000",43.7109044,79.379201,280 days
01/08/2024,3110 - 25 RICHMOND STREET E,TORONTO,ONTARIO,M5C0A6,LIHONG ZHANG,BAY STREET GROUP INC.,"$3,750/MONTHLY",43.6519017,79.3772165,
01/08/2024,3112 - 38 ELM STREET,TORONTO,ONTARIO,M5G2K5,ADRIANA GRAHAM,CENTURY 21 HERITAGE GROUP LTD.,"$629,900",43.6578425,79.3835701,
01/08/2024,3114 - 197 YONGE STREET,TORONTO,ONTARIO,M5B1M4,JEFF JAFFARI,RE/MAX HALLMARK REALTY LTD.,"$2,700/MONTHLY",43.6534359,79.3791875,
05/08/2024,3115 - 585 BLOOR STREET E,TORONTO,ONTARIO,M4W0B3,GISELA ASTRID SLOTNISKY,RIGHT AT HOME REALTY,"$1,100,000",43.6717536,79.3714449,7 hours
01/08/2024,312 - 160 FLEMINGTON ROAD,TORONTO,ONTARIO,M6A0A9,FURQUAN MOLU,ROYAL LEPAGE SIGNATURE REALTY,"$649,000",43.7231614,79.4482025,
30/07/2024,311 - 300 MANITOBA STREET,TORONTO,ONTARIO,M8Y4G6,DAVID PEKAR,RE/MAX REALTRON REALTY INC.,"$1,380,000",43.6241543,79.4898188,2 hours
03/08/2024,3102 - 5 ST JOSEPH STREET,TORONTO,ONTARIO,M4Y0B6,HANNAH HAN,HOMELIFE LANDMARK REALTY INC.,"$958,000",43.6665707,79.385494,2 days
30/07/2024,310 PHARMACY AVENUE,TORONTO,ONTARIO,M1L3G3,NISHAN SINGH,HOMELIFE REAL ESTATE CENTRE INC.,"$1,399,000",43.7021447,79.2878221,12 days
31/07/2024,310 - 80 VANAULEY STREET,TORONTO,ONTARIO,M5T0C9,XIAO-MAN XU,HOMELIFE LANDMARK REALTY INC.,"$659,900",43.6499021,79.3992137,4 days
31/07/2024,309 - 1888 QUEEN STREET E,TORONTO,ONTARIO,M4L1H3,DEVON W LOFTUS,ROYAL LEPAGE SIGNATURE REALTY,"$789,900",43.6688658,79.3056776,34 minutes
30/07/2024,UPH8 - 256 DORIS AVENUE,TORONTO,ONTARIO,M2N6X8,MELODY CHONG,PROCONDO REALTY INC.,"$755,000",43.7716108,79.4121372,1 day
05/08/2024,309 RANEE AVENUE,TORONTO,ONTARIO,M6A1N9,AQSA SHAH,ROYAL LEPAGE TERRA REALTY,"$3,349,000",43.7219711,79.4506191,173 days
03/08/2024,31 BEAUCOURT ROAD,TORONTO,ONTARIO,M8Y3G1,LESLIE BRLEC,RE/MAX HALLMARK REALTY LTD.,"$1,519,999",43.6329823,79.4975731,20 hours
05/08/2024,31 BIRKDALE ROAD,TORONTO,ONTARIO,M1P3R3,SUPIPA SEWVAND PALIHAWADANAGE,CENTURY 21 GREEN REALTY INC.,"$890,000",43.7571035,79.2609299,4 days
01/08/2024,31 BLAIR ATHOL CRESCENT,TORONTO,ONTARIO,M9A1X6,CLIFFORD DENNIS BARRON,RE/MAX REAL ESTATE CENTRE INC.,"$2,775,000",43.6670609,79.5444714,
31/07/2024,31 CHATTERTON BOULEVARD,TORONTO,ONTARIO,M1M2G3,OLIVIA TORUN,REMAX REALTY ENTERPRISES INC,"$1,125,000",43.73573885,79.22308576,4 days
31/07/2024,31 CHATTERTON BOULEVARD,TORONTO,ONTARIO,M1M2G3,OLIVIA TORUN,RE/MAX REALTY ENTERPRISES INC.,"$1,125,000",43.7357575,79.2230643,3 days
31/07/2024,31 GOLDSBORO ROAD,TORONTO,ONTARIO,M9L1A6,AUGUSTUS THEODOROU,RE/MAX NOBLECORP REAL ESTATE,"$988,800",43.75271,79.5632434,27 minutes
30/07/2024,31 NIXON HEIGHTS,TORONTO,ONTARIO,M1L0H4,SINNAH S RAJAGOPAL,RE/MAX REALTRON REALTY INC.,"$849,999",43.7029062,79.2743726,5 hours
05/08/2024,31 ROSE AVENUE,TORONTO,ONTARIO,M4X1N7,VINAY LAKHANI,RE/MAX REALTRON REALTY INC.,"$2,449,000",43.666698,79.370203,1 day
30/07/2024,310 - 10 OLD YORK MILLS ROAD,TORONTO,ONTARIO,M2P2G9,THOMAS CHANG JOONG KO,HOMELIFE FRONTIER REALTY INC.,"$1,413,000",43.743812,79.4048868,60 days
30/07/2024,310 - 160 CANON JACKSON DRIVE,TORONTO,ONTARIO,M6M0B6,WASIM AHMED,ROYAL LEPAGE SIGNATURE REALTY,"$725,000",43.6976124,79.4751711,1 hour
05/08/2024,310 - 160 KINGSWAY CRESCENT,TORONTO,ONTARIO,M8X2S4,ZEBA KAZMI,HERSH REALTY GROUP INC.,"$889,900",43.6617413,79.5071132,4 days
03/08/2024,310 - 25 MALCOLM ROAD,TORONTO,ONTARIO,M4G1X7,ROBERT SPINDLER,RE/MAX HALLMARK REALTY LTD.,"$824,900",43.7031235,79.3613895,1 day
01/08/2024,310 - 500 DUPONT STREET,TORONTO,ONTARIO,M6G1Y7,FOROUGH FARRAH RANJBAR,SOTHEBY'S INTERNATIONAL REALTY CANADA,"$2,300/MONTHLY",43.6733119,79.415925,
31/07/2024,310 - 5793 YONGE STREET,TORONTO,ONTARIO,M3M0A9,ROBYN JUNG,HOMELIFE LANDMARK REALTY INC.,"$660,000",43.7844447,79.4162513,5 hours
01/08/2024,3602 - 20 LOMBARD STREET,TORONTO,ONTARIO,M5C0A7,HARRY LUO,REAL ONE REALTY INC.,"$2,500/MONTHLY",43.6516524,79.3769603,
05/08/2024,312 - 160 KINGSWAY CRESCENT,TORONTO,ONTARIO,M8X2S4,ZEBA KAZMI,HERSH REALTY GROUP INC.,"$1,069,900",43.6617413,79.5071132,4 days
01/08/2024,312 - 28 HARRISON GARDEN BOULEVARD,TORONTO,ONTARIO,M2N7B5,CINDY MOUAWAD,REAL BROKER ONTARIO LTD.,"$647,000",43.7565916,79.4086554,
31/07/2024,317 - 215 FORT YORK BOULEVARD,TORONTO,ONTARIO,M5V4A2,KAPAL SHARMA,CENTURY 21 PEOPLE'S CHOICE REALTY INC.,"$615,000",43.6366434,79.4046054,3 days
05/08/2024,319 - 128 FAIRVIEW MALL DRIVE,TORONTO,ONTARIO,M2J2Z1,CHRISTINE ZHANG,HOMELIFE NEW WORLD REALTY INC.,"$598,000",43.77998,79.3449211,1 day
30/07/2024,319 - 320 RICHMOND STREET E,TORONTO,ONTARIO,M5A1P9,BALAN MANIAN,ROYAL LEPAGE SIGNATURE REALTY,"$629,800",43.6535819,79.3687903,2 days
30/07/2024,32 - 24 FUNDY BAY BOULEVARD,TORONTO,ONTARIO,M1W3A4,HEATHER HE,RE/MAX REALTRON AWCT REALTY,"$799,000",43.8112745,79.3134118,2 days
30/07/2024,32 CHINOOK TRAIL,TORONTO,ONTARIO,M3B0B4,LOVISH GUPTA,RIGHT AT HOME REALTY,"$1,699,000",43.7404379,79.3417999,1 day
30/07/2024,32 COADY AVENUE,TORONTO,ONTARIO,M4M2Y8,ANNE J O'NEILL,ROYAL LEPAGE REAL ESTATE SERVICES LTD.,"$1,399,000",43.6633821,79.3347128,3 days
30/07/2024,32 GOTHIC AVENUE UNIT# 5,TORONTO,ONTARIO,M6P2V9,MICHAEL PHINNEY,ROYAL LEPAGE REAL ESTATE SERVICES PHINNEY REAL EST,"$1,499,999",43.65377653,79.46885767,49 days
01/08/2024,317 - 15 MERCER STREET,TORONTO,ONTARIO,M5V1H2,RYAN COYLE,ROYAL LEPAGE SIGNATURE CONNECT.CA REALTY,"$639,900",43.6455696,79.3901536,
30/07/2024,32 MACKLEM AVENUE,TORONTO,ONTARIO,M6J3M2,STEPHEN JOHN GLAYSHER,META REALTY INC.,"$1,399,000",43.6523298,79.4316521,74 days
30/07/2024,320 - 585 BLOOR STREET E,TORONTO,ONTARIO,M4W0B3,CHRISTINA M. CHAN,CENTURY 21 ATRIA REALTY INC.,"$639,000",43.6717536,79.3714449,2 days
05/08/2024,3202 - 373 FRONT STREET W,TORONTO,ONTARIO,M5V3R7,ELENA SHAPIRO,HOMELIFE FRONTIER REALTY INC.,"$699,900",43.6429328,79.3921472,151 days
30/07/2024,3203 - 95 MCMAHON DRIVE S,TORONTO,ONTARIO,M2K0H2,JENNY LEE,HOMELIFE LANDMARK REALTY INC.,"$1,369,000",43.7667106,79.3723553,10 days
03/08/2024,3205 - 30 GIBBS ROAD,TORONTO,ONTARIO,M9B6L6,NANCY TAZA,TAZA REAL ESTATE,"$739,000",43.6392239,79.5596305,21 hours
05/08/2024,3205 - 381 FRONT STREET W,TORONTO,ONTARIO,M5V3R8,DIMITRIOS KAKARELIS,RIGHT AT HOME REALTY,"$710,900",43.642721,79.3925667,170 days
03/08/2024,3205 - 70 FOREST MANOR ROAD,TORONTO,ONTARIO,M2J0A9,STELLA JUNG,RE/MAX REALTRON YC REALTY,"$725,000",43.7745395,79.3449495,2 days
30/07/2024,3207 - 27 MCMAHON DRIVE,TORONTO,ONTARIO,M2K0J2,JENNY DONG,PROMPTON REAL ESTATE SERVICES CORP.,"$1,418,000",43.76633,79.37366,17 days
03/08/2024,32 WASCANA AVENUE,TORONTO,ONTARIO,M5A1V5,PATRICK GILLIS,RE/MAX HALLMARK REALTY LTD.,"$1,185,000",43.6581371,79.3580071,2 days
31/07/2024,317 - 1070 PROGRESS AVENUE,TORONTO,ONTARIO,M1B5Z6,YOGESH PATEL,HOMELIFE/MIRACLE REALTY LTD,"$669,900",43.7938932,79.2350265,22 hours
05/08/2024,316 - 38 THE ESPLANADE,TORONTO,ONTARIO,M5E1A5,TINA WEISZ,RE/MAX REALTRON REALTY INC.,"$899,000",43.6470321,79.3747898,1 day
05/08/2024,316 - 111 ST CLAIR AVENUE W,TORONTO,ONTARIO,M4V1N5,ANGELO SOL,ROYAL LEPAGE TERREQUITY SW REALTY,"$669,000",43.6867098,79.3992581,3 days
01/08/2024,312 - 300 ALTON TOWERS CIRCLE,TORONTO,ONTARIO,M1V4X9,MONICA ZHANG,REAL ONE REALTY INC.,"$628,000",43.8240371,79.2769284,
30/07/2024,312 - 3237 BAYVIEW AVENUE,TORONTO,ONTARIO,M2K0G1,LEO CHENG,RIGHT AT HOME REALTY,"$688,000",43.7899754,79.392618,2 hours
03/08/2024,312 - 403 CHURCH STREET,TORONTO,ONTARIO,M4Y0C9,SAM KAMRA,REAL ESTATE BAY REALTY,"$599,900",43.6622664,79.3792077,2 hours
05/08/2024,312 - 50 POWER STREET,TORONTO,ONTARIO,M5A0V3,SAIVENKATA GOLLU,GET HOME REALTY INC.,"$449,000",43.6543821,79.3630452,1 day
05/08/2024,312 SEATON STREET,TORONTO,ONTARIO,M5A2T7,DOLMA TULOTSANG,ROYAL LEPAGE YOUR COMMUNITY REALTY,"$3,200,000",43.6622477,79.3712324,138 days
05/08/2024,3127 - 5 MABELLE AVENUE,TORONTO,ONTARIO,M9A0C8,MARTIN XIAOLIANG CHEN,HOMELIFE LANDMARK REALTY INC.,"$599,000",43.6466642,79.5255121,1 day
05/08/2024,3129 - 5 MABELLE AVENUE,TORONTO,ONTARIO,M9A0C8,SHEETAL BAGHIANA,CENTURY 21 TITANS REALTY INC.,"$749,000",43.6466642,79.5255121,289 days
01/08/2024,313 - 41 MARKBROOK LANE,TORONTO,ONTARIO,M9V5E6,AYAN CHANDON DEB,STRATA REAL ESTATE,"$635,000",43.7583721,79.5864619,
05/08/2024,313 SHEPPARD AVENUE E,TORONTO,ONTARIO,M2N3B3,HOSSEIN TAYEFY,PROXY REAL PROPERTY INC.,"$2,748,800",43.7655122,79.3918233,332 days
01/08/2024,314 - 403 CHURCH STREET,TORONTO,ONTARIO,M4Y2C2,SONG ZHANG,HOMELIFE/REALTY ONE LTD.,"$648,000",43.6622608,79.3793321,
03/08/2024,315 - 11 EVERSON DRIVE,TORONTO,ONTARIO,M2N7B9,ALEX ZHENG-LU,HC REALTY GROUP INC.,"$1,250,000",43.7586201,79.4071206,17 hours
03/08/2024,315 - 1730 EGLINTON AVENUE E,TORONTO,ONTARIO,M4A2X9,DOLLY DHANIRAM,ROYAL LEPAGE SIGNATURE REALTY,"$599,900",43.7257718,79.3099155,2 hours
01/08/2024,315 - 19 WESTERN BATTERY ROAD,TORONTO,ONTARIO,M6K0E3,SUNG JUNG WOO,RE/MAX CONDOS PLUS CORPORATION,"$629,000",43.6396604,79.4106213,
03/08/2024,315 - 4208 DUNDAS STREET W,TORONTO,ONTARIO,M8X0B1,GRACE SOARES,RE/MAX WEST REALTY INC.,"$685,000",43.6605004,79.5116276,1 day
31/07/2024,315 - 88 GRANDVIEW WAY,TORONTO,ONTARIO,M2N6V6,LINDA XU,REAL ONE REALTY INC.,"$719,000",43.7747202,79.4121931,3 days
01/08/2024,315 - 90 PARK LAWN ROAD,TORONTO,ONTARIO,M8Y0B6,LUNA IDA SECHI,RE/MAX PROFESSIONALS INC.,"$625,000",43.6243974,79.4852196,
03/08/2024,315 - 954 KING STREET W,TORONTO,ONTARIO,M6K3L9,KYLE CHARLES SOMERVILLE,WESTON REALTY PARTNERS,"$1,274,000",43.6419611,79.4135255,2 days
31/07/2024,312 - 25 SUNNY GLEN WAY,TORONTO,ONTARIO,M3C2Z5,CHERRY WU,RE/MAX EXCEL REALTY LTD.,"$599,900",43.7101014,79.3302884,3 days
30/07/2024,5708 - 386 YONGE STREET,TORONTO,ONTARIO,M5B0A5,MIN CATHERINE SUN,GOLDEN LIFE REALTY LTD.,"$1,399,880",43.6596706,79.3825726,7 days
30/07/2024,3603 - 35 MERCER STREET,TORONTO,ONTARIO,M5V0V1,RAMIN KHAZE,FOREST HILL REAL ESTATE INC.,"$1,448,000",43.6454864,79.3909407,111 days
30/07/2024,3604 - 15 MERCER STREET,TORONTO,ONTARIO,M5V3C6,RAED NUSAIBAH,SOTHEBY'S INTERNATIONAL REALTY CANADA,"$1,349,000",43.6455696,79.3901536,142 days
05/08/2024,404 - 5180 YONGE STREET,TORONTO,ONTARIO,M2N0K5,ASHLEY HYUN JU LEE,ROYAL LEPAGE NEW CONCEPT,"$649,900",43.7704653,79.4138309,1 day
03/08/2024,404 - 900 ST. CLAIR AVENUE,TORONTO,ONTARIO,M6C1C5,MICHAEL TAM,RIGHT AT HOME REALTY,"$645,999",43.6804767,79.4334924,1 day
31/07/2024,405 - 170 FORT YORK BOULEVARD,TORONTO,ONTARIO,M5V0E6,WERNER SCHWARZ,RIGHT AT HOME REALTY,"$539,900",43.6393282,79.3996031,4 days
05/08/2024,405 - 2221 YONGE STREET,TORONTO,ONTARIO,M4S0B8,MADELEINE ALICE BODENSTEIN,HOMELIFE/BAYVIEW REALTY INC.,"$559,000",43.7060344,79.3979348,257 days
05/08/2024,405 - 2545 BLOOR STREET W,TORONTO,ONTARIO,M6S1S1,RICK W. JOHNSTON,RE/MAX WEST REALTY INC.,"$1,875,000",43.6474425,79.4899972,124 days
05/08/2024,405 - 36 FOREST MANOR ROAD,TORONTO,ONTARIO,M2J0H3,SAM ARIAKHAH,ROYAL LEPAGE SIGNATURE REALTY,"$899,000",43.7717131,79.3457636,204 days
01/08/2024,405 NORTHCLIFFE BOULEVARD,TORONTO,ONTARIO,M6E3L3,NINA MAMMOLITI,RE/MAX ULTIMATE REALTY INC.,"$1,100,000",43.6865602,79.4438729,
31/07/2024,404 - 451 THE WEST MALL,TORONTO,ONTARIO,M9C1G1,EILY LIANG-BARTFAI,SEARCH REALTY,"$599,000",43.646774,79.567696,25 minutes
30/07/2024,406 - 1 ABERFOYLE CRESCENT,TORONTO,ONTARIO,M8X2X8,GIOVANNA JO-ANN FOLINO,SOTHEBY'S INTERNATIONAL REALTY CANADA,"$1,348,000",43.6458046,79.5197835,18 days
31/07/2024,406 - 318 RICHMOND STREET W,TORONTO,ONTARIO,M5V0B4,MICHAEL HO,CONDOWONG REAL ESTATE INC.,"$560,000",43.6489242,79.3921998,19 hours
30/07/2024,407 - 390 CHERRY STREET,TORONTO,ONTARIO,M5A0E2,NOREEN KHO,RIGHT AT HOME REALTY,"$1,499,900",43.6505536,79.3573819,26 days
31/07/2024,407 - 832 BAY STREET,TORONTO,ONTARIO,M5S1Z6,LILY ZHANG,HOMELIFE LANDMARK REALTY INC.,"$579,000",43.6620809,79.3865134,1 day
03/08/2024,408 - 17 DUNDONALD STREET,TORONTO,ONTARIO,M4Y0E4,ARUN BATRA,RE/MAX REALTY SERVICES INC.,"$629,900",43.6660525,79.3834891,14 hours
05/08/2024,408 - 25 CARLTON STREET,TORONTO,ONTARIO,M5B1L4,KENNETH FOK,HOMELIFE ALLCITY REALTY INC.,"$684,900",43.6614803,79.3805174,156 days
31/07/2024,408 - 260 SENECA HILL DRIVE,TORONTO,ONTARIO,M2J4S6,ALAN ZHANG,HOMELIFE LANDMARK REALTY INC.,"$618,000",43.7901315,79.3573445,16 hours
30/07/2024,408 - 2645 JANE STREET,TORONTO,ONTARIO,M3L2J3,FERNANDO AGUILAR,CENTURY 21 BEST SELLERS LTD.,"$448,800",43.7377398,79.5113598,5 hours
30/07/2024,406 - 261 KING STREET E,TORONTO,ONTARIO,M5A4T6,RILEY BOYKO,IRISE,"$1,399,900",43.6512646,79.3676736,67 days
05/08/2024,409 - 130 CANON JACKSON DRIVE,TORONTO,ONTARIO,M6M0B8,HARRY RAISINGHANI,RE/MAX GOLD REALTY INC.,"$499,999",43.6978357,79.4741224,4 days
03/08/2024,404 - 105 GEORGE STREET,TORONTO,ONTARIO,M5A0L4,ROY WANG,BAY STREET GROUP INC.,"$699,000",43.6522051,79.3707929,2 days
03/08/2024,403 LONGMORE STREET,TORONTO,ONTARIO,M2N5C2,ELI BAKHTIARI,RE/MAX REALTRON ELI BAKHTIARI TEAM REALTY,"$1,980,000",43.7769782,79.4020533,1 day
05/08/2024,4002 - 295 ADELAIDE STREET,TORONTO,ONTARIO,M5V0L4,ELLENA CHO,ROYAL LEPAGE NEW CONCEPT,"$870,000",43.6476752,79.390532,3 days
05/08/2024,4002 - 99 JOHN STREET,TORONTO,ONTARIO,M5V0S6,TIM WANG,"T-ONE GROUP REALTY INC.,","$748,000",43.6475245,79.3899312,2 days
30/07/2024,4003 - 15 MERCER STREET,TORONTO,ONTARIO,M5V3C6,RAED NUSAIBAH,SOTHEBY'S INTERNATIONAL REALTY CANADA,"$1,499,000",43.6455696,79.3901536,69 days
05/08/2024,4005 - 1 YORKVILLE AVENUE,TORONTO,ONTARIO,M4W0B1,SALMAN HUMAYUN,ROYAL LEPAGE YOUR COMMUNITY REALTY,"$899,900",43.6716254,79.3877935,144 days
30/07/2024,4007 - 488 UNIVERSITY AVENUE,TORONTO,ONTARIO,M5G0C1,ERICA KURIBAYASHI TRAN,RE/MAX DASH REALTY,"$1,499,000",43.6550277,79.3890703,83 days
05/08/2024,4010 - 1 PALACE PIER COURT,TORONTO,ONTARIO,M8V3W9,LUKE DALINDA,ROYAL LEPAGE REAL ESTATE SERVICES LTD.,"$999,000",43.6314479,79.4726297,2 days
05/08/2024,4010 - 39 ROEHAMPTON AVENUE,TORONTO,ONTARIO,M4P0G1,RUTH HAMILTON,RE/MAX HALLMARK REALTY LTD.,"$620,000",43.7081849,79.3970648,131 days
05/08/2024,403 NORTHCLIFFE BOULEVARD,TORONTO,ONTARIO,M6E3L3,MAURICIO JIMENEZ,ROYAL LEPAGE WEST REALTY GROUP LTD.,"$1,198,800",43.6864798,79.4438698,122 days
01/08/2024,4011 - 20 LOMBARD STREET,TORONTO,ONTARIO,M5C0A6,KOLA BANUSO,EXECUTIVE HOMES REALTY INC.,"$1,400,000",43.6516862,79.3769987,
05/08/2024,4015 - 1926 LAKE SHORE BOULEVARD,TORONTO,ONTARIO,M6S1A1,SEAN ATRIE,ROYAL LEPAGE SIGNATURE REALTY,"$749,000",43.6361278,79.4672709,153 days
30/07/2024,402 - 18 REAN DRIVE,TORONTO,ONTARIO,M2K1H3,JOSEPH YUAN,STARHOME REALTY INC,"$609,666",43.7672411,79.3832479,4 hours
05/08/2024,402 - 200 BLOOR STREET W,TORONTO,ONTARIO,M5S1T8,WING LUO,HOMELIFE NEW WORLD REALTY INC.,"$1,050,000",43.6686329,79.3953332,145 days
30/07/2024,402 - 350 LONSDALE ROAD,TORONTO,ONTARIO,M5P1R6,EREZ HENYA,FOREST HILL REAL ESTATE INC.,"$1,320,000",43.6884877,79.4146249,44 days
01/08/2024,402 - 36 FOREST MANOR ROAD,TORONTO,ONTARIO,M2J0H2,NAN SI,EXP REALTY,"$628,000",43.7719666,79.3448168,
30/07/2024,403 - 285 AVENUE ROAD,TORONTO,ONTARIO,M4V2G8,MICHELLE ANNE SCHIPPER,RE/MAX REALTRON REALTY INC.,"$1,499,000",43.6790191,79.3981227,39 days
01/08/2024,403 - 295 ADELAIDE STREET W,TORONTO,ONTARIO,M5V1P7,MARIA CHENG,HOMELIFE GOLD PACIFIC REALTY INC.,"$628,000",43.6476752,79.390532,
01/08/2024,409 - 19 AVONDALE AVENUE,TORONTO,ONTARIO,M2N0A6,RONIT BARZILAY,HARVEY KALLES REAL ESTATE LTD.,"$475,000",43.7581185,79.4091085,
03/08/2024,409 - 875 THE QUEENSWAY,TORONTO,ONTARIO,M8Z1N8,NIKKI GOODMAN,MILBORNE REAL ESTATE INC.,"$879,990",43.6246167,79.5105853,17 hours
30/07/2024,41 BECKETT AVENUE,TORONTO,ONTARIO,M6L2B3,DUYEN PHAM,RIGHT AT HOME REALTY,"$1,399,999",43.7148699,79.5036692,72 days
05/08/2024,413 - 115 BONIS AVENUE,TORONTO,ONTARIO,M1T3K9,DAN VAN LOON,RE/MAX ALL-STARS REALTY INC.,"$340,000",43.7839924,79.2953755,127 days
03/08/2024,413 - 30 ROEHAMPTON AVENUE,TORONTO,ONTARIO,M4P0B9,NAUSHIN KEMP,ROYAL LEPAGE REAL ESTATE SERVICES LTD.,"$799,900",43.7087677,79.3975119,2 days
01/08/2024,413 - 770 BAY STREET,TORONTO,ONTARIO,M5G0A6,MARCO LUPUSELLA,KELLER WILLIAMS LEGACIES REALTY,"$998,900",43.6600829,79.3860086,
30/07/2024,413 DREWRY AVENUE,TORONTO,ONTARIO,M2R2K3,DONNA GAO,RE/MAX ALPHA SOLD REALTY,"$1,399,000",43.7826622,79.4366241,25 days
01/08/2024,414 - 15 LOWER JARVIS STREET,TORONTO,ONTARIO,M5E0C4,WAAD TAHA,SUTTON GROUP QUANTUM REALTY INC.,"$550,000",43.6451805,79.3692779,
03/08/2024,414 - 3220 SHEPPARD AVENUE E,TORONTO,ONTARIO,M1T0B7,LUCKSHAN SUBAMANY,RE/MAX MILLENNIUM REAL ESTATE,"$584,990",43.7780207,79.3126027,2 days
31/07/2024,415 - 150 SUDBURY STREET,TORONTO,ONTARIO,M6J3S8,MATTHEW GLOWACKI,EXP REALTY,"$498,000",43.6415681,79.424192,44 minutes
03/08/2024,413 - 1040 THE QUEENSWAY AVENUE,TORONTO,ONTARIO,M8Z0A7,ANDREW DOUMONT,KELLER WILLIAMS REFERRED URBAN REALTY,"$575,000",43.6235679,79.516016,4 hours
03/08/2024,415 - 859 THE QUEENSWAY,TORONTO,ONTARIO,M8Z1N8,MOE DIB,CITYVIEW REALTY INC.,"$550,000",43.6238202,79.510815,2 days
03/08/2024,417 - 455 FRONT STREET E,TORONTO,ONTARIO,M5A0G2,DONATO DINAPOLI,NEW ERA REAL ESTATE,"$849,000",43.6527641,79.3565028,23 hours
01/08/2024,419 - 665 QUEEN STREET E,TORONTO,ONTARIO,M4M1G4,DANIEL VAJDA,FOREST HILL REAL ESTATE INC.,"$640,000",43.6583639,79.351143,
03/08/2024,419 - 955 BAY STREET,TORONTO,ONTARIO,M5S0C6,GALLANT SHAM,MEHOME REALTY (ONTARIO) INC.,"$570,000",43.6646319,79.3869529,2 days
05/08/2024,42 FRONTENAC AVENUE,TORONTO,ONTARIO,M5N1Z7,HASKEL ZIONCE,WEISS REALTY LTD.,"$2,299,000",43.7181399,79.4240865,3 days
05/08/2024,42 GWENDOLEN CRESCENT,TORONTO,ONTARIO,M2N2L7,MEHRAN NOURI,RIGHT AT HOME REALTY,"$2,100,000",43.7530018,79.4227226,166 days
30/07/2024,42 HOLMCREST TRAIL,TORONTO,ONTARIO,M1C1V5,HEATHER ANN LEMIEUX,ROYAL LEPAGE CONNECT REALTY,"$1,500,000",43.7731494,79.1471854,26 days
03/08/2024,417 - 2055 DANFORTH AVENUE,TORONTO,ONTARIO,M4C1J8,MATT ERKAN,RE/MAX REALTRON REALTY INC.,"$868,000",43.6852274,79.3133342,2 days
30/07/2024,4122 - 585 BLOOR STREET E,TORONTO,ONTARIO,M4W0B3,LEO YUE,CENTURY 21 MYPRO REALTY,"$1,449,000",43.6717528,79.3714432,80 days
30/07/2024,412 - 9 FOUR WINDS DRIVE,TORONTO,ONTARIO,M3J2S8,J.D. GAUTAM,KELLER WILLIAMS CO-ELEVATION REALTY,"$524,000",43.764736,79.4935373,21 hours
05/08/2024,412 - 714 THE WEST MALL,TORONTO,ONTARIO,M9C4X1,ALEXANDRA COTE,REAL BROKER ONTARIO LTD.,"$670,000",43.6569027,79.570911,3 days
05/08/2024,41 KINGDOM STREET,TORONTO,ONTARIO,M9P1W4,AMBER HONOR ELSON,RE/MAX REALTRON REALTY INC.,"$4,775,000",43.6952687,79.5170063,227 days
30/07/2024,41 SOUTH KINGSLEA DRIVE,TORONTO,ONTARIO,M8Y2A5,PAUL AMBLER,RE/MAX PROFESSIONALS INC.,"$2,498,000",43.6413147,79.495939,3 days
30/07/2024,41 TERRAVIEW BOULEVARD S,TORONTO,ONTARIO,M1R4L8,CHARLES D. FERREIRA,HOMELIFE REGIONAL REALTY LTD.,"$1,399,000",43.7650688,79.3148511,5 days
30/07/2024,410 - 16 MCADAM AVENUE,TORONTO,ONTARIO,M6A0B9,KEN ONG,CENTURY 21 GREEN REALTY INC.,"$599,000",43.7229146,79.4571199,5 hours
05/08/2024,410 - 60 BERWICK AVENUE,TORONTO,ONTARIO,M5P0A3,WILSON LEE,HOMELIFE LANDMARK REALTY INC.,"$952,000",43.7039005,79.3998308,123 days
01/08/2024,410 - 80 ESTHER LORRIE DRIVE,TORONTO,ONTARIO,M9W0C6,DEEPAK PATEL,HOMELIFE/MIRACLE REALTY LTD,"$517,800",43.731918,79.5769374,
05/08/2024,4101 - 28 FREELAND STREET,TORONTO,ONTARIO,M2J1M6,STANLEY WONG,HOMELIFE FRONTIER REALTY INC.,"$3,094,900",43.6436476,79.3737615,192 days
31/07/2024,4103 - 38 GRENVILLE STREET,TORONTO,ONTARIO,M4Y1A5,CONNIE ZENG,RE/MAX EXCEL REALTY LTD.,"$1,028,000",43.6618845,79.3857031,2 days
05/08/2024,4104 - 30 NELSON STREET,TORONTO,ONTARIO,M5V0H5,AMY PING,FIRST CLASS REALTY INC.,"$1,530,000",43.6490377,79.3884119,181 days
05/08/2024,4106 - 55 BREMNER BOULEVARD,TORONTO,ONTARIO,M5J0A6,RAVI PANESAR,RE/MAX HALLMARK FIRST GROUP REALTY LTD.,"$579,999",43.642884,79.3804767,7 hours
01/08/2024,4107 - 1 BLOOR STREET,TORONTO,ONTARIO,M4W0A8,ABRAR UL HASSAN,CITYSCAPE REAL ESTATE LTD.,"$1,179,900",43.6701587,79.3862462,
30/07/2024,4107 - 82 DALHOUSIE STREET,TORONTO,ONTARIO,M5B0C5,KARIM KABANI,CENTURY 21 LEADING EDGE REALTY INC.,"$1,350,000",43.6557378,79.3764533,2 days
05/08/2024,411 - 160 KINGSWAY CRESCENT,TORONTO,ONTARIO,M8X2S4,ZEBA KAZMI,HERSH REALTY GROUP INC.,"$775,900",43.6617413,79.5071132,4 days
30/07/2024,411 - 1815 YONGE STREET,TORONTO,ONTARIO,M4T2A4,ROSANNA MASTRANDREA,ROYAL LEPAGE SIGNATURE REALTY,"$1,499,000",43.6961373,79.3956673,53 days
05/08/2024,411 - 25 NEIGHBOURHOOD LANE,TORONTO,ONTARIO,M8Y0C4,NAZANIN MESGARA,HOMELIFE FRONTIER REALTY INC.,"$539,900",43.6382223,79.489225,4 days
03/08/2024,412 - 1 STRATHGOWAN AVENUE,TORONTO,ONTARIO,M4N0B3,MARC CARISSE,SUTTON GROUP OLD MILL REALTY INC.,"$1,599,999",43.7187263,79.4003158,44 minutes
05/08/2024,412 - 36 ZORRA STREET,TORONTO,ONTARIO,M8Z0G5,SARVAT TAHIR,CENTURY 21 FIRST CANADIAN CORP,"$579,900",43.6197417,79.5217377,121 days
05/08/2024,4001 - 761 BAY STREET,TORONTO,ONTARIO,M5G2R2,SHAMS HIRJI,RE/MAX REALTRON REALTY INC.,"$3,980,000",43.6596493,79.3849721,130 days
05/08/2024,40 HART AVENUE,TORONTO,ONTARIO,M1K3H1,JEY JEYKUMAR,RE/MAX REALTRON REALTY INC.,"$1,099,900",43.7214012,79.2605098,4 days
31/07/2024,40 FLINTWICK DRIVE,TORONTO,ONTARIO,M1P4G9,SUSIE INTHIRAN,LUXURY HOMES WORLD INC.,"$795,000",43.7674846,79.2509628,5 hours
03/08/2024,40 DOMBEY ROAD,TORONTO,ONTARIO,M3L1N9,JEREMY VIDAL,RE/MAX ULTIMATE REALTY INC.,"$959,900",43.7382248,79.5069616,7 hours
30/07/2024,3759 ELLESMERE ROAD,TORONTO,ONTARIO,M1C1H8,DAVID ANTON,ROYAL LEPAGE CONNECT REALTY,"$1,499,900",43.7908544,79.1691915,34 days
05/08/2024,376 GEORGE STREET,TORONTO,ONTARIO,M5A2N3,JAMSHID FAIZ,"INTERNATIONAL REALTY FIRM, INC.","$2,499,000",43.659988,79.374842,161 days
05/08/2024,377 BROOKE AVENUE,TORONTO,ONTARIO,M5M2L5,JENNIFER SPRING LEVY,RIGHT AT HOME REALTY,"$4,438,000",43.7308196,79.429375,133 days
05/08/2024,379 GLENGARRY AVENUE,TORONTO,ONTARIO,M5M1E7,PARIS SAMII,RIGHT AT HOME REALTY,"$4,688,000",43.7220864,79.419376,123 days
30/07/2024,38 RANEE AVENUE,TORONTO,ONTARIO,M6A1M9,DANIEL LIU,EVERLAND REALTY INC.,"$1,448,000",43.7266886,79.4337954,122 days
05/08/2024,38 SALONICA ROAD,TORONTO,ONTARIO,M3C2L9,NANCY SAEDI,ROYAL LEPAGE REAL ESTATE SERVICES NANCY SAEDI,"$12,880,000",43.7272077,79.3549536,214 days
05/08/2024,38 SALONICA ROAD,TORONTO,ONTARIO,M3C2L9,NANCY SAEDI,ROYAL LEPAGE REAL ESTATE SERVICES NANCY SAEDI,"$5,500,000",43.7272077,79.3549536,214 days
30/07/2024,374 SPADINA AVENUE,TORONTO,ONTARIO,M5T2G4,OLGA KOSTYUKHINA,SUTTON GROUP-ADMIRAL REALTY INC.,"$1,480,000",43.6550476,79.3991727,116 days
30/07/2024,380 - 415 JARVIS STREET,TORONTO,ONTARIO,M4Y3C1,SHAUN HSU,SUTTON GROUP-ASSOCIATES REALTY INC.,"$750,000",43.6636254,79.3760782,2 days
31/07/2024,3803 - 81 NAVY WHARF COURT,TORONTO,ONTARIO,M5V3S2,ALIM KARA,ON THE BLOCK,"$1,599,000",43.6413827,79.3915096,39 minutes
03/08/2024,3804 - 70 DISTILLERY LANE,TORONTO,ONTARIO,M5A0E3,ALYSHA FIORIO,CORE ASSETS REAL ESTATE,"$649,000",43.6503828,79.3579742,2 days
05/08/2024,3805 - 16 HARBOUR STREET,TORONTO,ONTARIO,M5J2Z7,AL DAIMEE,ROYAL LEPAGE SIGNATURE REALTY,"$859,900",43.643032,79.3768469,4 days
01/08/2024,3805 - 25 TELEGRAM MEWS,TORONTO,ONTARIO,M5V3Z1,MAX MUZZONE,ROYAL LEPAGE YOUR COMMUNITY REALTY,"$649,000",43.6411454,79.3942451,
05/08/2024,3806 - 210 VICTORIA STREET,TORONTO,ONTARIO,M5B2R3,ADAM S.H GUNN,REAL ESTATE HOMEWARD,"$569,000",43.6545895,79.3789601,3 days
30/07/2024,3806 - 318 RICHMOND STREET W,TORONTO,ONTARIO,M5V0B4,RITWIK UBAN,CENTURY 21 LEADING EDGE REALTY INC.,"$1,449,000",43.6489242,79.3921998,18 days
05/08/2024,3807 - 56 ANNIE CRAIG DRIVE,TORONTO,ONTARIO,M8V0C8,NOREEN KHO,RIGHT AT HOME REALTY,"$559,000",43.6254787,79.4788159,3 days
30/07/2024,380 DIXON ROAD,TORONTO,ONTARIO,M9R1T4,ROSE MARIE NAGALLO,RE/MAX METROPOLIS REALTY,"$460,000",43.6952791,79.5577381,21 hours
30/07/2024,3711 - 38 WIDMER STREET,TORONTO,ONTARIO,M5V2E9,DAN HAO,GOLDEN BRIDGE REALTY,"$1,388,000",43.6480856,79.391839,109 days
01/08/2024,3711 - 2221 YONGE STREET,TORONTO,ONTARIO,M4S0B8,MINA DEMIR,ONE PERCENT REALTY LTD.,"$648,000",43.7060642,79.3977203,
01/08/2024,3711 - 20 LOMBARD STREET,TORONTO,ONTARIO,M5C0A7,ROB GOLFI,RE/MAX ESCARPMENT GOLFI REALTY INC.,"$1,224,888",43.6516524,79.3769603,
03/08/2024,3608 - 318 RICHMOND STREET W,TORONTO,ONTARIO,M5V0B4,JAMES SHUQOM,ROYAL LEPAGE TERREQUITY GOLD REALTY,"$500,000",43.6489242,79.3921998,2 days
01/08/2024,3608 - 82 DALHOUSIE STREET,TORONTO,ONTARIO,M5B0C5,LEARIE GAIRY,OUR NEIGHBOURHOOD REALTY INC.,"$1,925/MONTHLY",43.6557378,79.3764533,
31/07/2024,3609 - 397 FRONT STREET W,TORONTO,ONTARIO,M5V3R8,ALFRED MAN HO LEE,LIVING REALTY INC.,"$710,000",43.6426397,79.3935863,3 days
01/08/2024,3609 - 77 MUTUAL STREET,TORONTO,ONTARIO,M5B2A9,JASON ZHU,MEHOME REALTY (ONTARIO) INC.,"$499,000",43.6561607,79.3750714,
05/08/2024,3610 - 18 YONGE STREET,TORONTO,ONTARIO,M5E1Z8,TED WAXMAN,ALAN NEWTON REAL ESTATE LTD.,"$875,000",43.6446048,79.3765047,184 days
03/08/2024,3611 - 161 ROEHAMPTON AVENUE,TORONTO,ONTARIO,M3P1P9,BRIAN BYUNGHOON YU,ROYAL LEPAGE NEW CONCEPT,"$825,000",43.7087725,79.3937821,2 days
30/07/2024,365 HOWLAND AVENUE,TORONTO,ONTARIO,M5R3C1,DANIEL PUSTIL,SOTHEBY'S INTERNATIONAL REALTY CANADA,"$1,499,000",43.6762655,79.4129012,7 days
31/07/2024,366 - 31 TIPPETT ROAD,TORONTO,ONTARIO,M3H0C8,SILVIA P DI MONTE,REALINVEST CANADA INC.,"$698,800",43.7335125,79.4460849,39 minutes
30/07/2024,37 COTMAN CRESCENT,TORONTO,ONTARIO,M9B3A4,CHRIS GAWRYS,"GOWEST REALTY LTD., BROKERAGE","$1,499,800",43.66581722,79.56118577,4 days
30/07/2024,37 COTMAN CRESCENT,TORONTO,ONTARIO,M9B3A4,CHRIS GAWRYS,GOWEST REALTY LTD.,"$1,499,800",43.6658468,79.5611925,3 days
03/08/2024,37 FRONTIER PATHWAY,TORONTO,ONTARIO,M1B4G6,KAMAL AHMED,HOMELIFE TODAY REALTY LTD.,"$799,000",43.8088062,79.2091953,1 hour
01/08/2024,37 JOPLING AVENUE N,TORONTO,ONTARIO,M9B4E9,LYDIA ROBERTSON,CENTURY 21 MILLENNIUM INC,"$2,095,000",43.64373736,79.54036453,
30/07/2024,37 WEST AVENUE,TORONTO,ONTARIO,M4M2L7,GEORGE LIN,RE/MAX HALLMARK REALTY LTD.,"$1,475,000",43.6648802,79.3461952,25 days
30/07/2024,37 WHISTLING HILLS DRIVE,TORONTO,ONTARIO,M1V2B6,LENA ZHANG,HC REALTY GROUP INC.,"$1,498,800",43.8261902,79.2681701,54 days
30/07/2024,3702 - 28 FREELAND STREET,TORONTO,ONTARIO,M5E0E3,DARRIN LEITCH,RE/MAX REALTRON REALTY INC.,"$1,399,880",43.6436476,79.3737615,32 days
03/08/2024,3706 - 95 MCMAHON DRIVE,TORONTO,ONTARIO,M2K0H2,CINDY YIN,CENTURY 21 MYPRO REALTY,"$965,000",43.7667106,79.3723553,3 hours
03/08/2024,3710 - 18 YONGE STREET,TORONTO,ONTARIO,M5E1Z8,TED WAXMAN,ALAN NEWTON REAL ESTATE LTD.,"$845,000",43.6446048,79.3765047,2 days
05/08/2024,3810 - 10 PARK LAWN ROAD,TORONTO,ONTARIO,M8V0H9,JESSICA GUO,HOMELIFE LANDMARK REALTY INC.,"$688,000",43.6233108,79.4837509,2 days
31/07/2024,3603 - 575 BLOOR STREET E,TORONTO,ONTARIO,M4W0B2,HENRIETTA SUNG,RIGHT AT HOME REALTY,"$999,000",43.6718782,79.3724592,21 hours
05/08/2024,383 O'CONNOR DRIVE,TORONTO,ONTARIO,M4J2V9,BELLA LEE,FOREST HILL REAL ESTATE INC.,"$1,088,000",43.6957716,79.3376884,151 days
30/07/2024,386 WESTMORELAND AVENUE N,TORONTO,ONTARIO,M6H3A7,NELSON LOURENCO,SUTTON GROUP ELITE REALTY INC BROKERAGE,"$1,399,999",43.67204739,79.43524712,42 days
01/08/2024,3B HOBDEN PLACE,TORONTO,ONTARIO,M9R3R6,ZYRENE RODELAS URLANDA,HOMELIFE LANDMARK REALTY INC.,"$900,000",43.6845177,79.5655399,
01/08/2024,3D - 36 HAZELTON AVENUE,TORONTO,ONTARIO,M5R2E2,MICHAEL C. MCLACHLAN,ROYAL LEPAGE REAL ESTATE SERVICES HEAPS ESTRIN TEAM,"$2,990,000",43.671864,79.3938104,
01/08/2024,4 - 8 MALLORY GARDENS,TORONTO,ONTARIO,M4V2A6,ANTONINA DOHOT,RE/MAX REALTRON REALTY INC.,"$2,299/MONTHLY",43.690527,79.3966503,
31/07/2024,4 - 9 PINE STREET,TORONTO,ONTARIO,M9N0A6,SATHEES SABARATNAM,HOMELIFE/FUTURE REALTY INC.,"$729,900",43.7011403,79.5076139,26 minutes
31/07/2024,4 ANNAREE DRIVE,TORONTO,ONTARIO,M1R4L4,CAROL ELIZABETH FODERICK,KELLER WILLIAMS ADVANTAGE REALTY,"$969,000",43.7645061,79.3153331,34 minutes
05/08/2024,4 HIGH STREET,TORONTO,ONTARIO,M8Y3N8,MICHEAL MEHMET TURK,ROYAL LEPAGE REAL ESTATE SERVICES LTD.,"$1,299,000",43.6310747,79.4836522,4 days
30/07/2024,4 INGLETON BOULEVARD,TORONTO,ONTARIO,M1V3M1,EVA YANG,JOYNET REALTY INC.,"$1,320,000",43.8231306,79.2719622,45 days
31/07/2024,397 DUDLEY AVENUE,TORONTO,ONTARIO,M2N7M1,MERRY ZHENG,CENTURY 21 MYPRO REALTY,"$1,655,000",43.7808614,79.4094367,4 days
30/07/2024,4 LIPPINCOTT STREET W,TORONTO,ONTARIO,M9N1B4,LUIGI D. TASSONE,HOMELIFE PRINCIPLE REAL ESTATE,"$1,349,000",43.6954598,79.5081816,98 days
05/08/2024,4 TARMOLA PARK COURT,TORONTO,ONTARIO,M9L2L1,ANGELA MARIA DEFALCO,INTERCITY REALTY INC.,"$1,159,990",43.7600178,79.5731436,183 days
01/08/2024,4 TODD BROOK DRIVE,TORONTO,ONTARIO,M9V1R4,M. A. QURESHI,CITYSCAPE REAL ESTATE LTD.,"$1,150,000",43.7399937,79.569936,
05/08/2024,4 WICKSON TRAIL,TORONTO,ONTARIO,M1B1M2,CHITTA DAS,RE/MAX ALL-STARS REALTY INC.,"$929,900",43.8021572,79.2172039,3 days
30/07/2024,4 YEOMANS ROAD,TORONTO,ONTARIO,M3H3J4,RENETA HADJIANGUELOVA,"INTERNATIONAL REALTY FIRM, INC.","$1,500,000",43.7462354,79.4409322,16 days
05/08/2024,40 B - 23 INNES AVENUE,TORONTO,ONTARIO,M6E4P3,HANNE ELISABETH FLAKE,ORION REALTY CORPORATION,"$1,889,900",43.68101,79.45658,149 days
30/07/2024,40 BOWSFIELD ROAD,TORONTO,ONTARIO,M3J3R3,SHERWIN DIMACULANGAN,RE/MAX REALTRON SMART CHOICE TEAM,"$1,399,000",43.7670578,79.4984367,75 days
01/08/2024,40 DAISY AVENUE,TORONTO,ONTARIO,M8W1S1,ALEXANDER JAMES WILSON,RE/MAX WEALTH BUILDERS REAL ESTATE,"$7,000/MONTHLY",43.5981407,79.5264737,
05/08/2024,4 PYNFORD CRESCENT,TORONTO,ONTARIO,M3A1W8,AHMAD FAROOQ MIAN,CENTURY 21 INNOVATIVE REALTY INC.,"$799,990",43.7592052,79.3175759,1 hour
03/08/2024,395 MORRISH ROAD,TORONTO,ONTARIO,M1C1E9,SURIN TOOR,FIRST METROPOLITAN REALTY CORP.,"$1,950,000",43.7898462,79.1729522,2 days
05/08/2024,395 MARKLAND DRIVE,TORONTO,ONTARIO,M9C1S5,BRIAN C. SMITH,RE/MAX PROFESSIONALS INC.,"$2,675,000",43.6319166,79.5702545,1 day
05/08/2024,393 OLD WESTON ROAD,TORONTO,ONTARIO,M6N3A9,THAO NGUYEN,IPRO REALTY LTD.,"$849,000",43.6744869,79.4630911,2 hours
30/07/2024,386 WESTMORELAND AVENUE N,TORONTO,ONTARIO,M6H3A7,NELSON LOU LOURENCO,SUTTON GROUP ELITE REALTY INC.,"$1,399,999",43.6720516,79.4352922,41 days
30/07/2024,388 OAKWOOD AVENUE,TORONTO,ONTARIO,M6E2W3,MUNISH LUMB,HOMELIFE/MIRACLE REALTY LTD,"$2,249,999",43.6877876,79.4392223,2 days
30/07/2024,389 DAVISVILLE AVENUE,TORONTO,ONTARIO,M4S1H4,SANDRA YOU CHIN,SUTTON GROUP-ADMIRAL REALTY INC.,"$1,488,000",43.7012925,79.3814969,13 days
05/08/2024,39 CENTURY DRIVE,TORONTO,ONTARIO,M1K4J7,TONY S. KALSI,TONY K REAL ESTATE,"$889,900",43.7348998,79.2497606,3 days
05/08/2024,39 COMMONWEALTH AVENUE,TORONTO,ONTARIO,M1K4K1,HANS OHRSTROM,HOMELIFE EAGLE REALTY INC.,"$2,199,900",43.7298397,79.2544095,4 days
30/07/2024,39 HEATHFIELD DRIVE,TORONTO,ONTARIO,M1M3A9,CAROL ELIZABETH FODERICK,KELLER WILLIAMS ADVANTAGE REALTY,"$1,399,999",43.7381972,79.2107923,4 days
03/08/2024,39 JOHN STONER DRIVE,TORONTO,ONTARIO,M1B3A2,CORA WEEKES,CITYLITE REALTY INC.,"$795,999",43.8130235,79.208482,2 days
31/07/2024,39 WOODTHORPE ROAD,TORONTO,ONTARIO,M4A1S6,EVA HAASE,ROYAL LEPAGE SIGNATURE REALTY,"$1,328,000",43.7349526,79.3109233,43 minutes
30/07/2024,390 OAKWOOD AVENUE,TORONTO,ONTARIO,M6E2W3,ROBERT GRIN,FINE HOMES REALESTATE INC.,"$1,329,000",43.6878568,79.439259,19 days
01/08/2024,3903 - 1928 LAKE SHORE BOULEVARD,TORONTO,ONTARIO,M6S0B1,SUMIT TAGGAR,ROYAL LEPAGE SIGNATURE REALTY,"$649,000",43.6357637,79.4679304,
05/08/2024,3904 - 290 ADELAIDE STREET W,TORONTO,ONTARIO,M5V0P3,DOROTA EDYTA BADEWICZ,RIGHT AT HOME REALTY,"$828,888",43.6480809,79.3910262,147 days
31/07/2024,3906 - 80 JOHN STREET,TORONTO,ONTARIO,M5V3X4,HOUMAN SHIRVANI,FOREST HILL REAL ESTATE INC.,"$665,000",43.646771,79.3899912,1 day
30/07/2024,3907 - 20 LOMBARD STREET,TORONTO,ONTARIO,M5C0A7,JASON CHEN,ALPHA REALTY INC.,"$1,390,000",43.6516524,79.3769603,26 days
05/08/2024,3909 - 426 UNIVERSITY AVENUE,TORONTO,ONTARIO,M5G1S9,AMBER LI,HOMELIFE NEW WORLD REALTY INC.,"$599,000",43.6540859,79.388416,169 days
03/08/2024,3909 - 95 MCMAHON DRIVE,TORONTO,ONTARIO,M2K0H2,RAY YANG,MEHOME REALTY (ONTARIO) INC.,"$699,000",43.7667106,79.3723553,1 day
05/08/2024,3910 - 11 WELLESLEY STREET W,TORONTO,ONTARIO,M4Y0G4,ANU ARYA,HOMELIFE/MIRACLE REALTY LTD,"$517,888",43.6645977,79.3852242,1 day
03/08/2024,3910 - 488 UNIVERSITY AVENUE,TORONTO,ONTARIO,M5G0C1,JOSHUA P. BENNETT,SOTHEBY'S INTERNATIONAL REALTY CANADA,"$6,000/MONTHLY",43.6550277,79.3890703,20 hours
05/08/2024,3838 BLOOR STREET W,TORONTO,ONTARIO,M9B1L1,IAN ANDREW HUNT,CBRE LIMITED,"$5,488,000",43.641351,79.5388698,151 days
30/07/2024,579 RUSTIC ROAD,TORONTO,ONTARIO,M6C1Y2,JOSE R. PEREIRA,RE/MAX WEST REALTY INC.,"$1,349,000",43.7194738,79.4740748,11 days
01/08/2024,57A JEAVONS AVENUE,TORONTO,ONTARIO,M1K1T1,USAMA BILAL,CENTURY 21 LEADING EDGE REALTY INC.,"$1,800/MONTHLY",43.7064287,79.2664691,
05/08/2024,58 & 60 PINE RIDGE DRIVE,TORONTO,ONTARIO,M1M2X7,STEVE KABBABEH,CENTURY 21 LEADING EDGE REALTY INC.,"$2,188,000",43.7297155,79.2257226,174 days
30/07/2024,86 NORTH PARK DRIVE,TORONTO,ONTARIO,M6L1K2,BEHI SHAFIEI,METROPOLITAN COMMERCIAL REALTY INC.,"$1,399,000",43.7116501,79.47805,41 days
31/07/2024,86 RORY ROAD,TORONTO,ONTARIO,M6L3G1,CHAITANYA BANSAL,HOUSEEO REALTY,"$999,900",43.7202711,79.4867017,4 days
03/08/2024,864 DANFORTH ROAD,TORONTO,ONTARIO,M1K1H7,JOHN CAMARA,CENTURY 21 REGAL REALTY INC.,"$799,900",43.7276612,79.2529044,2 days
05/08/2024,866 EGLINTON AVENUE W,TORONTO,ONTARIO,M6C2B6,MICHAEL S. WEISS,WEISS REALTY LTD.,"$2,700,000",43.7010687,79.4262813,181 days
31/07/2024,869 SCARBOROUGH GOLF CLUB ROAD,TORONTO,ONTARIO,M1G1J4,SANDEEP SHANKAR KADAM,CENTURY 21 PERCY FULTON LTD.,"$1,098,000",43.7715854,79.2190289,3 days
05/08/2024,87 - 760 LAWRENCE AVENUE W,TORONTO,ONTARIO,M6A1B8,LILY HU,BAY STREET GROUP INC.,"$799,000",43.7148299,79.4514791,157 days
05/08/2024,87 BONACRES AVENUE,TORONTO,ONTARIO,M1C3B8,ANTONINO GALLETTA,CENTURY 21 PARKLAND LTD.,"$1,750,000",43.7787215,79.1598751,131 days
30/07/2024,86 HELENDALE AVENUE,TORONTO,ONTARIO,M4R1C7,ERROL PAULICPULLE,HARVEY KALLES REAL ESTATE LTD.,"$1,350,000",43.708698,79.4014016,23 days
31/07/2024,87 HILLHURST BOULEVARD,TORONTO,ONTARIO,M5N1N5,EVA SCHILLING,SUTTON GROUP-ASSOCIATES REALTY INC.,"$2,950,000",43.7110087,79.4155729,1 day
30/07/2024,877 LOGAN AVENUE,TORONTO,ONTARIO,M4K3E2,MIAO JUAN HE,HOMELIFE LANDMARK REALTY INC.,"$1,399,000",43.6774544,79.3493125,6 days
30/07/2024,879 LANSDOWNE AVENUE,TORONTO,ONTARIO,M6H3Z2,LEO SHIU,SUPERSTARS REALTY LTD.,"$1,399,000",43.6636345,79.4449322,70 days
05/08/2024,88 ALBERTUS AVENUE,TORONTO,ONTARIO,M4R1J7,DINO J. CAPOCCI,ROYAL LEPAGE REAL ESTATE SERVICES LTD.,"$2,695,000",43.7142074,79.4027151,3 days
30/07/2024,88 CHERRYSTONE DRIVE,TORONTO,ONTARIO,M2H1S1,BILL THOM,RE/MAX REALTRON REALTY INC.,"$1,485,000",43.8068928,79.3574696,8 days
05/08/2024,88 WOODLAWN AVENUE W,TORONTO,ONTARIO,M4V1G7,KEVIN CRIGGER,ROYAL LEPAGE/J & D DIVISION,"$7,798,000",43.6832811,79.3966309,160 days
05/08/2024,8815 SHEPPARD AVENUE E,TORONTO,ONTARIO,M1B5R7,JACKIE WINTERFIELD,ROYAL HERITAGE REALTY LTD.,$1,43.8038061,79.18435,207 days
30/07/2024,89 CONCORD AVENUE,TORONTO,ONTARIO,M6H2P2,SALLY SHAROYAN,RE/MAX EXCEL REALTY LTD.,"$1,300,000",43.6571633,79.4248789,10 days
05/08/2024,87 NATIONAL STREET,TORONTO,ONTARIO,M1M0A3,MARISSE DAVID,ROYAL LEPAGE SIGNATURE REALTY,"$899,000",43.7222823,79.2509058,2 days
30/07/2024,89 HALFMOON SQUARE,TORONTO,ONTARIO,M1C3V2,ANNA WOOD,RE/MAX ROUGE RIVER REALTY LTD.,"$1,100,000",43.79532,79.180427,15 hours
05/08/2024,86 DEEP DENE DRIVE,TORONTO,ONTARIO,M1C1L7,RULA ABDEL-KADER,IPRO REALTY LTD.,"$2,599,900",43.7893225,79.1700693,1 day
05/08/2024,854 EGLINTON AVENUE W,TORONTO,ONTARIO,M6C2B6,MICHAEL S. WEISS,WEISS REALTY LTD.,"$5,400,000",43.7010448,79.4259612,181 days
05/08/2024,82 CHESTNUT PARK ROAD,TORONTO,ONTARIO,M4W2R3,JANET MARLENE LINDSAY,CHESTNUT PARK REAL ESTATE LIMITED,"$16,500,000",43.6801064,79.3833754,299 days
03/08/2024,82 CROW TRAIL,TORONTO,ONTARIO,M1B1X9,NOELLA INGABIRE,RE/MAX CONDOS PLUS CORPORATION,"$999,000",43.8132538,79.2328897,2 days
31/07/2024,82 QUANTRELL TRAIL,TORONTO,ONTARIO,M1B1L8,MEI KUEN HEUNG,CENTURY 21 KING'S QUAY REAL ESTATE INC.,"$699,000",43.8034467,79.2157298,4 days
01/08/2024,820 - 181 VILLAGE GREEN SQUARE,TORONTO,ONTARIO,M1S0K6,NAVI KANAGALINGAM,RE/MAX ROYAL PROPERTIES REALTY,"$609,000",43.7789092,79.2813986,
05/08/2024,820 - 460 ADELAIDE STREET E,TORONTO,ONTARIO,M5A0E7,STEPHEN ANDREW KHALLA,RIGHT AT HOME REALTY,"$685,000",43.6528922,79.3667341,121 days
01/08/2024,823 - 20 EDWARD STREET,TORONTO,ONTARIO,M5G0C5,MARTA ELORZA,RE/MAX CROSSROADS REALTY INC.,"$614,500",43.6569664,79.3821204,
05/08/2024,823 - 560 KING STREET,TORONTO,ONTARIO,M5V1M3,MICHAEL MANDARELLO,YOUR HOME SOLD GUARANTEED REALTY IMPERIUM,"$829,999",43.6449218,79.3990768,131 days
05/08/2024,856 EGLINTON AVENUE W,TORONTO,ONTARIO,M6C2B6,MICHAEL S. WEISS,WEISS REALTY LTD.,"$8,800,000",43.7011947,79.4260591,181 days
01/08/2024,824 - 3100 KEELE STREET,TORONTO,ONTARIO,M3M2H4,GEOFFREY PATRICK GRACE,RE/MAX HALLMARK REALTY LTD.,"$638,000",43.7400361,79.4856773,
31/07/2024,829 - 169 FORT YORK BOULEVARD,TORONTO,ONTARIO,M5V0C8,JOHN MARTINO,NEW ERA REAL ESTATE,"$699,900",43.6384989,79.4009491,1 day
31/07/2024,83 NORTHERN DANCER BOULEVARD,TORONTO,ONTARIO,M4L3Z8,NATASZA TYZLER,HAMMOND INTERNATIONAL PROPERTIES LIMITED,"$3,880,000",43.6662852,79.3106308,3 days
30/07/2024,832 DAVENPORT ROAD,TORONTO,ONTARIO,M6G2B6,SUMITA DHILLON,KELLER WILLIAMS ADVANTAGE REALTY,"$1,499,999",43.6766294,79.4197371,59 days
31/07/2024,84 GOLDSBORO ROAD,TORONTO,ONTARIO,M9L1A7,DENISE EILEEN LIBOIRON,CENTURY 21 ALL-PRO REALTY (1993) LTD.,"$4,900/MONTHLY",43.7546187,79.5628943,1 day
31/07/2024,84 LAURELCREST AVENUE,TORONTO,ONTARIO,M3H2A9,LISA BELILLTI,FOREST HILL REAL ESTATE INC.,"$3,136,000",43.7428836,79.4433988,5 hours
05/08/2024,85 KENILWORTH AVENUE,TORONTO,ONTARIO,M4L3S4,JOSEPH W MEDINA,CENTURY 21 PARKLAND LTD.,"$1,719,000",43.6685954,79.3011503,403 days
30/07/2024,85 LETCHWORTH CRESCENT,TORONTO,ONTARIO,M3M1Z1,EDEN KELETA TEWELDE,"INTERNATIONAL REALTY FIRM, INC.","$1,380,000",43.7285754,79.4943334,50 days
01/08/2024,827 - 461 ADELAIDE STREET W,TORONTO,ONTARIO,M5V0L6,RYAN WOOD,HARVEY KALLES REAL ESTATE LTD.,"$618,000",43.6456283,79.3994816,
30/07/2024,894 OSSINGTON AVENUE,TORONTO,ONTARIO,M6G3V1,LENA N. D'ALFONSO,SUTTON GROUP-SECURITY REAL ESTATE INC.,"$1,399,000",43.6659469,79.4275515,27 days
30/07/2024,8A NINETEENTH STREET N,TORONTO,ONTARIO,M8V3L3,TADEUSZ JANICKI,HOMETARIO REAL ESTATE LTD.,"$1,499,000",43.5985421,79.5185617,130 days
01/08/2024,901 - 508 WELLINGTON STREET W,TORONTO,ONTARIO,M5V0K8,ANNIE GRACE HILL MORWOOD,CORE ASSETS REAL ESTATE,"$649,000",43.6434202,79.3991997,
01/08/2024,901 - 61 RICHVIEW ROAD,TORONTO,ONTARIO,M9A4M8,ROBERT MIRABELLI,SUTTON GROUP-SECURITY REAL ESTATE INC.,"$579,000",43.684081,79.5167385,
01/08/2024,902 - 150 EAST LIBERTY STREET,TORONTO,ONTARIO,M6K3R5,MICHAEL CAMBER,ROYAL LEPAGE SIGNATURE REALTY,"$649,000",43.6387616,79.4162413,
31/07/2024,902 - 19 SINGER COURT,TORONTO,ONTARIO,M2K0B2,FUNING TONY ZHANG,RE/MAX IMPERIAL REALTY INC.,"$630,000",43.7691693,79.3699765,15 hours
05/08/2024,902 - 3559 EGLINTON AVENUE W,TORONTO,ONTARIO,M6M5C6,FRANK PENNER,RE/MAX PROFESSIONALS INC.,"$475,900",43.6856222,79.4917953,194 days
31/07/2024,902 - 44 LONGBOURNE DRIVE,TORONTO,ONTARIO,M9R2M7,SANDY POSEIRO,CENTURY 21 PERCY FULTON LTD.,"$489,990",43.6807361,79.5689807,21 hours
03/08/2024,902 - 50 BRUYERES MEWS,TORONTO,ONTARIO,M5V0H8,VAN YANG,RE/MAX ULTIMATE REALTY INC.,"$589,000",43.6376722,79.4021383,2 days
05/08/2024,901 - 17 BATHURST STREET,TORONTO,ONTARIO,M5V0N1,SUSAN ZHAO,BAY STREET GROUP INC.,"$639,900",43.6377203,79.3999946,135 days
31/07/2024,903 - 35 FINCH AVENUE E,TORONTO,ONTARIO,M2N6Z8,NANCY LONG,WANTHOME REALTY INC.,"$600,000",43.7798543,79.4125439,4 hours
30/07/2024,903 - 410 QUEENS QUAY W,TORONTO,ONTARIO,M5V3T1,NATALYA TELENCHENKO,FOREST HILL REAL ESTATE INC.,"$1,398,000",43.6380611,79.3914588,6 days
30/07/2024,904 - 840 ST CLAIR AVENUE W,TORONTO,ONTARIO,M6C1C1,TORI PHILLIPS,HIRSCH AND ASSOCIATES REAL ESTATE INC.,"$1,399,900",43.6807483,79.431757,18 days
30/07/2024,904 - 88 CUMBERLAND STREET,TORONTO,ONTARIO,M5R1B9,RAMADHANI HAMISI,REAL ESTATE HOMEWARD,"$1,449,000",43.6704998,79.3905671,58 days
05/08/2024,904 - 88 CUMBERLAND STREET,TORONTO,ONTARIO,M5R1B9,RAMADHANI HAMISI,REAL ESTATE HOMEWARD,"$1,349,000",43.6704998,79.3905671,16 hours
30/07/2024,905 - 1 BLOOR STREET E,TORONTO,ONTARIO,M4W1A9,MICHAEL N. MEALIA,RE/MAX HALLMARK REALTY LTD.,"$689,000",43.6701587,79.3862462,2 days
01/08/2024,906 - 2525 BATHURST STREET,TORONTO,ONTARIO,M6B2Y9,MARTIN MALCHEV,RE/MAX REALTRON REALTY INC.,"$2,465/MONTHLY",43.7059936,79.4261248,
31/07/2024,907 - 250 LAWRENCE AVENUE,TORONTO,ONTARIO,M5M1B1,ALAN LAW,CENTURY 21 ATRIA REALTY INC.,"$1,074,900",43.7229268,79.4139016,4 days
31/07/2024,903 - 386 YONGE STREET,TORONTO,ONTARIO,M5B0A5,LARISSA BOUCHELEVA,RE/MAX REALTRON REALTY INC.,"$748,000",43.6596706,79.3825726,42 minutes
01/08/2024,901 - 120 VARNA DRIVE,TORONTO,ONTARIO,M6A0B3,JULIA JEON,RIGHT AT HOME REALTY,"$609,000",43.7235804,79.445742,
30/07/2024,901 - 110 MARINE PARADE DRIVE,TORONTO,ONTARIO,M8V0A3,CARLOS PANIAGUA,AURA SIGNATURE REALTY INC.,"$1,348,888",43.6252794,79.4776821,84 days
05/08/2024,8D - 1 ST THOMAS STREET,TORONTO,ONTARIO,M5S2B7,DAWNA MARIE BORG,RE/MAX PREMIER INC.,"$2,188,000",43.6682043,79.3901428,166 days
30/07/2024,9 D - 66 COLLIER STREET,TORONTO,ONTARIO,M4W2N4,FOROHAR HEJAZI,HOME STANDARDS BRICKSTONE REALTY,"$2,675,000",43.6728189,79.3856099,7 hours
05/08/2024,9 DUNVEGAN ROAD,TORONTO,ONTARIO,M4V2P5,IRENA LI,HOMELIFE NEW WORLD REALTY INC.,"$3,490,000",43.686367,79.4047377,150 days
30/07/2024,9 FURROW LANE,TORONTO,ONTARIO,M8Z0A2,SHAWN BEARD,ROYAL LEPAGE SIGNATURE REALTY,"$1,424,900",43.6368767,79.5221713,19 days
31/07/2024,9 GLADFERN ROAD,TORONTO,ONTARIO,M8Z4H3,LORENA MAGALLANES,ROYAL LEPAGE WEST REALTY GROUP LTD.,"$1,794,000",43.6360397,79.5160289,1 day
30/07/2024,9 NORTHOVER STREET,TORONTO,ONTARIO,M3L1W4,SANKALP MARWAHA,CENTURY 21 PREMIUM REALTY,"$1,300,000",43.7372352,79.496525,59 days
