DATE,ADDRESS,CITY,STATE,POSTAL CODE,AGENT,BROKER,PRICE,LATITUDE,LONGITUDE,TIME
2024-07-30,60 MENDELSSOHN STREET UNIT# 422,TORONTO,ONTARIO,M1L0G9,JAMES MARTINEZ,RIGHT AT HOME REALTY BROKERAGE,"$589,000",43.71632693,79.28170316,15 minutes
2024-07-30,1309 - 240 SCARLETT ROAD,TORONTO W03,ONTARIO,M6N4X4,BENJAMIN WILLIAM GREENHILL,KELLER WILLIAMS CO-ELEVATION REALTY,"$725,000",43.675804,79.5083698,26 minutes
2024-07-30,1104 - 30 GIBBS ROAD,TORONTO W08,ONTARIO,M9B0E4,BRENDA GRANT,ROYAL LEPAGE SIGNATURE REALTY,"$399,999",43.6392239,79.5596305,26 minutes
2024-07-30,1505 - 3091 DUFFERIN STREET,TORONTO W04,ONTARIO,M6A0C4,SABRINE DUZDAR,DWELLY REALTY INC.,"$529,999",43.7153136,79.454618,26 minutes
2024-07-30,206 DONLANDS AVENUE,TORONTO E03,ONTARIO,M4J3R1,KENNETH YIM,KELLER WILLIAMS REFERRED URBAN REALTY,"$1,249,000",43.6871281,79.3403412,30 minutes
2024-07-30,2116 - 51 EAST LIBERTY STREET,TORONTO C01,ONTARIO,M6K3P8,MICHAEL OUZAS,ROYAL LEPAGE SIGNATURE REALTY,"$575,000",43.6387389,79.4121078,31 minutes
2024-07-30,99 MERCURY ROAD,TORONTO W10,ONTARIO,M9W3H4,MARIJA MARY-ANN SEMEN,SUTTON GROUP REALTY SYSTEMS INC.,"$1,285,000",43.7234067,79.5923436,56 minutes
2024-07-30,430 - 2300 ST CLAIR AVENUE W,TORONTO W02,ONTARIO,M6N1K8,GEORGE KOZARIS,ROYAL LEPAGE VISION REALTY,"$569,900",43.6704884,79.4781969,56 minutes
2024-07-30,308 - 2300 ST CLAIR AVENUE W,TORONTO W02,ONTARIO,M6N0B3,YURI KVYETKO,RE/MAX METROPOLIS REALTY,"$499,000",43.6704884,79.4781969,56 minutes
2024-07-30,7 TELFER GARDENS,TORONTO E11,ONTARIO,M1B6B9,SAM WADHWA,RE/MAX REALTRON REAL REALTY TEAM,"$988,000",43.8071701,79.2259794,1 hour
2024-07-30,105 BATHGATE DRIVE,TORONTO E10,ONTARIO,M1C1T7,JUDY STACEE-CLEAVER,MINCOM NEW CHOICE REALTY LTD.,"$1,530,800",43.7830035,79.1523447,1 hour
2024-07-30,211 - 55 BAMBURGH CIRCLE,TORONTO E05,ONTARIO,M1W3V4,AMIT RITU KANHAI,RANEX REALTY GROUP INC.,"$614,888",43.8147884,79.3266437,1 hour
2024-07-30,80 BROOKMILL BOULEVARD,TORONTO E05,ONTARIO,M1W2K5,LEO SHIU,SUPERSTARS REALTY LTD.,"$888,000",43.8025333,79.3126569,1 hour
2024-07-30,204 - 355 BEDFORD PARK AVENUE,TORONTO C04,ONTARIO,M5M3X6,DEAN ARONOVICI,RE/MAX DASH REALTY,"$1,099,999",43.7245347,79.4173843,1 hour
2024-07-30,815 - 18 YONGE STREET,TORONTO C01,ONTARIO,M5E1Z8,SAMIM KARIMI,RE/MAX HALLMARK FIRST GROUP REALTY LTD.,"$649,000",43.6446048,79.3765047,1 hour
2024-07-30,421 GLENHOLME AVENUE,TORONTO C03,ONTARIO,M6E3E8,LOUIS H. DESTOUNIS,HARVEY KALLES REAL ESTATE LTD.,"$1,099,000",43.6897253,79.442737,1 hour
2024-07-30,2009 - 90 STADIUM ROAD,TORONTO C01,ONTARIO,M5V3W5,MICHAEL LI,DREAM HOME REALTY INC.,"$649,900",43.6348555,79.4012965,1 hour
2024-07-30,520 - 10 CAPREOL COURT,TORONTO C01,ONTARIO,M5V4B3,VINNY KUMAR,IPRO REALTY LTD.,"$599,900",43.6401979,79.3959363,1 hour
2024-07-30,1711 - 65 ST MARY STREET,TORONTO C01,ONTARIO,M5S0A6,SEOK HAN,HOME STANDARDS BRICKSTONE REALTY,"$799,000",43.6672065,79.389162,1 hour
2024-07-30,620 - 621 SHEPPARD AVENUE E,TORONTO C07,ONTARIO,M2K1G4,WILLIAM SEK-KEUNG CHOI,TRADEWORLD REALTY INC,"$568,000",43.7555312,79.4376681,1 hour
2024-07-30,311 - 300 MANITOBA STREET,TORONTO W06,ONTARIO,M8Y4G6,DAVID PEKAR,RE/MAX REALTRON REALTY INC.,"$1,380,000",43.6241543,79.4898188,1 hour
2024-07-30,2115 - 195 REDPATH AVENUE,TORONTO C10,ONTARIO,M4P0E4,CARON WONG,GOLDENWAY REAL ESTATE LTD.,"$490,000",43.710166,79.39348,1 hour
2024-07-30,303 - 1 DEER PARK CRESCENT,TORONTO C02,ONTARIO,M4V3C4,ADAM DAVID WEINER,HARVEY KALLES REAL ESTATE LTD.,"$499,000",43.6875066,79.3982164,1 hour
2024-07-30,310 - 160 CANON JACKSON DRIVE,TORONTO W04,ONTARIO,M6M0B6,WASIM AHMED,ROYAL LEPAGE SIGNATURE REALTY,"$725,000",43.6976124,79.4751711,1 hour
2024-07-30,25 GROVELEAF ROAD,TORONTO E07,ONTARIO,M1S4X7,ELLIOTT SHIFF,HARVEY KALLES REAL ESTATE LTD.,"$1,207,500",43.7818906,79.268026,2 hours
2024-07-30,58 RHYDWEN AVENUE,TORONTO E06,ONTARIO,M1N2E1,ALLISTER JOHN SINCLAIR,RE/MAX HALLMARK REALTY LTD.,"$1,599,000",43.695756,79.2644354,2 hours
2024-07-30,212 LANGLEY AVENUE,TORONTO E01,ONTARIO,M4K1B9,WAFA MASRI,RE/MAX HALLMARK REALTY LTD.,"$1,198,800",43.6701113,79.3429942,2 hours
2024-07-30,212 LEE AVENUE,TORONTO E02,ONTARIO,M4E2P3,MELANIE T. J. WRIGHT,UNION REALTY BROKERAGE INC.,"$1,829,999",43.6741631,79.2997878,2 hours
2024-07-30,67 CANLISH ROAD,TORONTO E04,ONTARIO,M1P1S6,DEMETRI GEORGIOU,FOREST HILL REAL ESTATE INC.,"$1,099,000",43.7522967,79.2827938,2 hours
2024-07-30,TH12 - 69 GRAND MAGAZINE STREET,TORONTO C01,ONTARIO,M5V0A7,JENNIFER VIERA,RE/MAX EXPERTS,"$1,100,000",43.6368957,79.4023259,2 hours
2024-07-30,3010 - 29 SINGER COURT,TORONTO C15,ONTARIO,M2K0B3,MAGGIE LAM,LANDPOWER REAL ESTATE LTD.,"$569,000",43.7692161,79.3688897,2 hours
2024-07-30,1407 - 28 FREELAND STREET,TORONTO C01,ONTARIO,M5E0E3,NORMAN XU,ROYAL LEPAGE SIGNATURE REALTY,"$939,000",43.6436476,79.3737615,2 hours
2024-07-30,312 - 3237 BAYVIEW AVENUE,TORONTO C15,ONTARIO,M2K0G1,LEO CHENG,RIGHT AT HOME REALTY,"$688,000",43.7899754,79.392618,2 hours
2024-07-30,PH106 - 5791 YONGE STREET,TORONTO C14,ONTARIO,M2M0A8,FARHANG FRANK ZADAFSHAR,ROYAL LEPAGE TERREQUITY REALTY,"$818,000",43.7845275,79.416192,2 hours
2024-07-30,2202 - 20 EDWARD STREET,TORONTO C01,ONTARIO,M5G0C5,HELENA ZHANG,HOMELIFE LANDMARK REALTY INC.,"$758,000",43.6569939,79.3821206,2 hours
2024-07-30,305 - 8 REAN DRIVE,TORONTO C15,ONTARIO,M2K3B9,DOUGLAS HO,HOMELIFE NEW WORLD REALTY INC.,"$675,000",43.7660492,79.382764,2 hours
2024-07-30,58 RHYDWEN AVENUE,TORONTO E06,ONTARIO,M1N2E1,ALLISTER JOHN SINCLAIR,RE/MAX HALLMARK REALTY LTD.,"$1,599,000",43.695756,79.2644354,2 hours
2024-07-30,212 LANGLEY AVENUE,TORONTO E01,ONTARIO,M4K1B9,WAFA MASRI,RE/MAX HALLMARK REALTY LTD.,"$1,198,800",43.6701113,79.3429942,2 hours
2024-07-30,212 LEE AVENUE,TORONTO E02,ONTARIO,M4E2P3,MELANIE T. J. WRIGHT,UNION REALTY BROKERAGE INC.,"$1,829,999",43.6741631,79.2997878,2 hours
2024-07-30,67 CANLISH ROAD,TORONTO E04,ONTARIO,M1P1S6,DEMETRI GEORGIOU,FOREST HILL REAL ESTATE INC.,"$1,099,000",43.7522967,79.2827938,2 hours
2024-07-30,TH12 - 69 GRAND MAGAZINE STREET,TORONTO C01,ONTARIO,M5V0A7,JENNIFER VIERA,RE/MAX EXPERTS,"$1,100,000",43.6368957,79.4023259,2 hours
2024-07-30,3010 - 29 SINGER COURT,TORONTO C15,ONTARIO,M2K0B3,MAGGIE LAM,LANDPOWER REAL ESTATE LTD.,"$569,000",43.7692161,79.3688897,2 hours
2024-07-30,1407 - 28 FREELAND STREET,TORONTO C01,ONTARIO,M5E0E3,NORMAN XU,ROYAL LEPAGE SIGNATURE REALTY,"$939,000",43.6436476,79.3737615,2 hours
2024-07-30,312 - 3237 BAYVIEW AVENUE,TORONTO C15,ONTARIO,M2K0G1,LEO CHENG,RIGHT AT HOME REALTY,"$688,000",43.7899754,79.392618,2 hours
2024-07-30,PH106 - 5791 YONGE STREET,TORONTO C14,ONTARIO,M2M0A8,FARHANG FRANK ZADAFSHAR,ROYAL LEPAGE TERREQUITY REALTY,"$818,000",43.7845275,79.416192,2 hours
2024-07-30,2202 - 20 EDWARD STREET,TORONTO C01,ONTARIO,M5G0C5,HELENA ZHANG,HOMELIFE LANDMARK REALTY INC.,"$758,000",43.6569939,79.3821206,2 hours
2024-07-30,305 - 8 REAN DRIVE,TORONTO C15,ONTARIO,M2K3B9,DOUGLAS HO,HOMELIFE NEW WORLD REALTY INC.,"$675,000",43.7660492,79.382764,2 hours
2024-07-30,5 HAYES LANE,TORONTO C14,ONTARIO,M2N0E7,JENNY JIAN,MAPLE LIFE REALTY INC.,"$1,190,000",43.783032,79.3990889,2 hours
2024-07-30,507 - 2 SONIC WAY,TORONTO C11,ONTARIO,M3C0P1,NATASHA HENRY,COLDWELL BANKER THE REAL ESTATE CENTRE,"$729,000",43.7195387,79.3366542,2 hours
2024-07-30,610 - 6 SONIC WAY,TORONTO C11,ONTARIO,M3C0P2,NATASHA HENRY,COLDWELL BANKER THE REAL ESTATE CENTRE,"$615,000",43.7194953,79.3365032,2 hours
2024-07-30,2106 - 5 MICHAEL POWER PLACE,TORONTO W08,ONTARIO,M9A0A3,PETER KADYLAK,ROYAL LEPAGE SIGNATURE REALTY,"$499,999",43.6448314,79.5293291,2 hours
2024-07-30,92 NORTHFIELD ROAD,TORONTO E09,ONTARIO,N2L5A6,ALLISTER JOHN SINCLAIR,RE/MAX HALLMARK REALTY LTD.,"$799,000",43.7682039,79.2111227,2 hours
2024-07-30,912 - 5 SOUDAN AVENUE,TORONTO C10,ONTARIO,M4S0B1,RICHARD KANGSUK KIM,ROYAL LEPAGE NEW CONCEPT,"$888,000",43.7043254,79.3971671,2 hours
2024-07-30,1105 - 1166 BAY STREET,TORONTO C01,ONTARIO,M5S2X8,CORINNE WAXBERG,ADVOCATE REALTY LTD.,"$3,850,000",43.6686364,79.3894166,2 hours
2024-07-30,34 TRUEMAN AVENUE,ETOBICOKE,ONTARIO,M8Z5A2,ROBERT PREECE,EXP REALTY,"$1,335,000",43.62441686,79.5239294,2 hours
2024-07-30,703 - 362 THE EAST MALL DRIVE,TORONTO W08,ONTARIO,M9B6C4,ANDY FENG,CENTURY 21 LANDUNION HOMENET REALTY INC.,"$619,900",43.6426012,79.5588071,3 hours
2024-07-30,710 - 58 MARINE PARADE DRIVE,TORONTO W06,ONTARIO,M8V4G1,LUNA IDA SECHI,RE/MAX PROFESSIONALS INC.,"$1,169,000",43.6274861,79.4767405,3 hours
2024-07-30,152 BARRINGTON AVENUE,TORONTO E03,ONTARIO,M4C4Z2,EVA UNIACKE,REAL ESTATE HOMEWARD,"$599,900",43.6936733,79.3031244,3 hours
2024-07-30,24 EVANSVILLE ROAD,TORONTO E07,ONTARIO,M1V1L5,EDWARD ALSISTO GALVEZ,KELLER WILLIAMS REFERRED URBAN REALTY,"$1,039,000",43.811227,79.2890905,3 hours
2024-07-30,132 HIAWATHA ROAD,TORONTO E01,ONTARIO,M4L2X9,BRENDA BARBOZA,RIGHT AT HOME REALTY,"$899,900",43.6726896,79.3234295,3 hours
2024-07-30,29 ROMULUS DRIVE,TORONTO E09,ONTARIO,M1K4C1,NIGEL SCOTT DENHAM,SOTHEBY'S INTERNATIONAL REALTY CANADA,"$1,149,000",43.7450043,79.2663449,3 hours
2024-07-30,29 HILLINGDON AVENUE,TORONTO E02,ONTARIO,M4C3H8,CAROL ELIZABETH FODERICK,KELLER WILLIAMS ADVANTAGE REALTY,"$899,000",43.6800499,79.3192722,3 hours
2024-07-30,419 FIFTH AVENUE,OLEAN,NEW,"YORK, ONTARIO",ANTONIO SAADE HOUSH,CENTURY 21 LEADING EDGE REALTY INC.,"$92,000",43.599454,79.5022716,3 hours
2024-07-30,6708 - 1 BLOOR STREET E,TORONTO C08,ONTARIO,M4W0A8,LADAN KATOUZIAN,RE/MAX ULTIMATE REALTY INC.,"$1,488,888",43.6701587,79.3862462,3 hours
2024-07-30,1903 - 85 QUEENS WHARF ROAD,TORONTO C01,ONTARIO,M5V0J9,ADDY RAHNAMA,HOMELIFE FRONTIER REALTY INC.,"$499,000",43.6389055,79.3986983,3 hours
2024-07-30,3308 - 95 MCMAHON DRIVE,TORONTO C15,ONTARIO,M2K0H2,SIAMAK SHAKIBI KENARSARI,CENTURY 21 HERITAGE GROUP LTD.,"$1,115,000",43.7667106,79.3723553,3 hours
2024-07-30,1006 - 34 TUBMAN AVENUE,TORONTO C08,ONTARIO,M5A0R2,SUSAN CHAZI,IPRO REALTY LTD.,"$630,000",43.6612119,79.359668,3 hours
2024-07-30,126 HOMEWOOD AVENUE,TORONTO C07,ONTARIO,M2M1K3,BIJAN BARATI,RE/MAX REALTRON BIJAN BARATI REAL ESTATE,"$3,288,000",43.7900875,79.4243984,3 hours
2024-07-30,617 - 399 SPRING GARDEN AVENUE,TORONTO C14,ONTARIO,M2N3H6,LAURA QIU,FIRST CLASS REALTY INC.,"$660,000",43.7686723,79.3894498,3 hours
2024-07-30,4504 - 8 EGLINTON AVENUE,TORONTO C10,ONTARIO,M4P0C1,SHERRY DABIR,ROYAL LEPAGE YOUR COMMUNITY REALTY,"$599,000",43.7072161,79.3979456,3 hours
2024-07-30,87 HILLHURST BOULEVARD,TORONTO C04,ONTARIO,M5N1N5,EVA SCHILLING,SUTTON GROUP-ASSOCIATES REALTY INC.,"$2,950,000",43.7110087,79.4155729,3 hours
2024-07-30,250 SAINT CLARENS AVENUE,TORONTO C01,ONTARIO,M6H3W3,IAN CARRILLO,EXP REALTY,"$1,999,888",43.6534506,79.4398563,3 hours
2024-07-30,1502 - 2181 YONGE STREET,TORONTO C10,ONTARIO,M4S3H7,TALIA KHANANIA,RIGHT AT HOME REALTY,"$929,000",43.7053045,79.3976065,3 hours
2024-07-30,13 BERL AVENUE,TORONTO W07,ONTARIO,M8Y3C3,HOSEIN AMOOSHAHI,LSG REALTY INC.,"$1,298,500",43.6283947,79.4975206,3 hours
2024-07-30,66 KILLAMARSH DRIVE,TORONTO W05,ONTARIO,M3J1J3,LEO SHIU,SUPERSTARS REALTY LTD.,"$999,000",43.7581122,79.4983553,3 hours
2024-07-30,1808 - 60 HEINTZMAN STREET,TORONTO W02,ONTARIO,M6P5A1,CLIVE MCLEAN,BOSLEY REAL ESTATE LTD.,"$525,000",43.6669766,79.4644347,3 hours
2024-07-30,29 SCARBOROUGH HEIGHTS BOULEVARD,TORONTO E08,ONTARIO,M1M2V3,NICOLE DIGALAKIS,RE/MAX ALL-STARS REALTY INC.,"$1,348,000",43.722049,79.2274525,3 hours
2024-07-30,105 - 39 KIMBERCROFT COURT,TORONTO E07,ONTARIO,M1S5B5,DIL CHOWDHURY,RE/MAX ROYAL PROPERTIES REALTY,"$490,000",43.7918957,79.2385071,3 hours
2024-07-30,119 CHESTNUT CRESCENT,TORONTO E04,ONTARIO,M1L1Y6,SAM THOMAS,RE/MAX REALTRON REALTY INC.,"$799,000",43.7174991,79.2754893,3 hours
2024-07-30,1012 - 1 LEE CENTRE DRIVE,TORONTO E09,ONTARIO,M1H3J2,VERA VELOIRA,RE/MAX REALTRON REALTY INC.,"$598,000",43.7813124,79.2452782,3 hours
2024-07-30,35 PHILPOTT GARDENS,TORONTO E02,ONTARIO,M4E0A8,ANDREW DOUMONT,KELLER WILLIAMS REFERRED URBAN REALTY,"$999,000",43.6875808,79.2908102,3 hours
2024-07-30,505 - 155 YORKVILLE AVENUE,TORONTO C02,ONTARIO,M5R0B4,MAURICE ANDERSON,ROYAL LEPAGE SIGNATURE REALTY,"$548,000",43.6703838,79.3944199,3 hours
2024-07-30,504 - 200 SUDBURY STREET,TORONTO C01,ONTARIO,M6H0H1,IVAN LAMOTCHKINE,RE/MAX REALTRON REALTY INC.,"$779,900",43.6421431,79.4264907,3 hours
2024-07-30,2203 - 25 CARLTON STREET,TORONTO C08,ONTARIO,M5B1L4,TREVOR DANIEL FONTAINE,SOTHEBY'S INTERNATIONAL REALTY CANADA,"$699,999",43.6612664,79.3815928,3 hours
2024-07-30,250 SAINT CLARENS AVENUE,TORONTO,ONTARIO,M6H3W3,IAIN SAMUEL CARRILLO,EXP REALTY,"$1,999,888",43.65389458,79.43988523,3 hours
2024-07-30,1101 - 1185 THE QUEENSWAY AVENUE,TORONTO W08,ONTARIO,M8Z0C6,DIANE MARIE TOBIA,ROYAL LEPAGE ESTATE REALTY,"$499,000",43.6218008,79.5215288,4 hours
2024-07-30,2315 - 9 MABELLE AVENUE,TORONTO W08,ONTARIO,M9A0E1,EDDIE WING-YIU WOO,HOMELIFE/GTA REALTY INC.,"$499,000",43.64613,79.5260433,4 hours
2024-07-30,9 GLADFERN ROAD,TORONTO W07,ONTARIO,M8Z4H3,LORENA MAGALLANES,ROYAL LEPAGE WEST REALTY GROUP LTD.,"$1,794,000",43.6360397,79.5160289,4 hours
2024-07-30,112 OAKCREST AVENUE,TORONTO E02,ONTARIO,M4C1B7,KHURRAM WARRAICH,CENTURY 21 PARKLAND LTD.,"$1,999,999",43.6843222,79.3080697,4 hours
2024-07-30,157A GALLOWAY ROAD,TORONTO E10,ONTARIO,M1E1X3,PARAG AGARWAL,MONKNEST REAL ESTATE INC.,"$789,900",43.7628949,79.1948331,4 hours
2024-07-30,911 - 33 CHARLES STREET E,TORONTO C08,ONTARIO,M4Y0A2,KENNETH YIM,KELLER WILLIAMS REFERRED URBAN REALTY,"$660,000",43.6685778,79.3844795,4 hours
2024-07-30,425 - 30 INN ON THE PARK DRIVE,TORONTO C13,ONTARIO,M3C0P7,MOHAMMAD NAFARI FARD,ROYAL LEPAGE SIGNATURE REALTY,"$1,145,000",43.7192183,79.3481879,4 hours
2024-07-30,304 - 51 HARRISON GARDEN BOULEVARD,TORONTO C14,ONTARIO,M2N7G4,LORENA MAGALLANES,ROYAL LEPAGE WEST REALTY GROUP LTD.,"$750,000",43.7566318,79.4074894,4 hours
2024-07-30,ADDRESS NOT AVAILABLE,NOT AVAILABLE,NOT AVAILABLE,NOT AVAILABLE,GRACE NG,SINCERE REALTY INC.,"$1,388,000",NOT AVAILABLE,NOT AVAILABLE,4 hours
2024-07-30,704 - 5 SOUDAN AVENUE,TORONTO C10,ONTARIO,M4S0B1,ANDREW J COPPOLA,ROYAL LEPAGE REAL ESTATE SERVICES LTD.,"$629,900",43.7043254,79.3971671,4 hours
2024-07-30,201 - 28 PEMBERTON AVENUE,TORONTO C14,ONTARIO,M2M4L1,HOWARD BURACK,KELLER WILLIAMS PORTFOLIO REALTY,"$705,000",43.7821074,79.4132834,4 hours
2024-07-30,402 - 18 REAN DRIVE,TORONTO C15,ONTARIO,M2K1H3,JOSEPH YUAN,STARHOME REALTY INC,"$609,666",43.7672411,79.3832479,4 hours
2024-07-30,1812 - 275 YORKLAND ROAD,TORONTO C15,ONTARIO,M2J0B4,STEVEN SUN,ROYAL LEPAGE PEACELAND STEVEN SUN REALTY,"$539,000",43.7747697,79.3369936,4 hours
2024-07-30,715 - 225 WELLESLEY STREET E,TORONTO C08,ONTARIO,M4X1X8,TIM NAGEL,ROYAL LEPAGE TERREQUITY REALTY,"$799,000",43.6674159,79.3725722,4 hours
2024-07-30,713 - 770 BAY STREET,TORONTO C01,ONTARIO,M5G0A6,DON CAI,ANJIA REALTY,"$820,000",43.6600829,79.3860086,4 hours
2024-07-30,1607 - 100 HAYDEN STREET,TORONTO C08,ONTARIO,M4Y3C7,VERA VELOIRA,RE/MAX REALTRON REALTY INC.,"$748,900",43.6705901,79.3816414,4 hours
2024-07-30,112 EDINBOROUGH COURT,TORONTO W03,ONTARIO,M6N2E8,DAVID ELFASSY,SUTTON GROUP-ADMIRAL REALTY INC.,"$1,074,900",43.6731752,79.5010164,4 hours
2024-07-30,298 KEELE STREET,TORONTO W02,ONTARIO,M6P2K4,SAM ALLAN MCDADI,SAM MCDADI REAL ESTATE INC.,"$2,850,000",43.663075,79.4638641,4 hours
2024-07-30,605 - 630 QUEEN STREET E,TORONTO E01,ONTARIO,M4M1G3,RYAN TUKE,KELLER WILLIAMS REFERRED URBAN REALTY,"$585,000",43.6584078,79.3526501,4 hours
2024-07-30,2902 - 25 CAPREOL COURT,TORONTO C01,ONTARIO,M5V3Z7,CLEMENT CHUN YIN KOO,CITY PLUS REALTY INC.,"$699,000",43.6407647,79.3955849,4 hours
2024-07-30,601 - 39 SHERBOURNE STREET,TORONTO C08,ONTARIO,M5A0L8,OBED JEAN-JACQUES,ROYAL LEPAGE TERREQUITY REALTY,"$554,999",43.6511284,79.3679847,4 hours
2024-07-30,3001 - 155 BEECROFT ROAD,TORONTO C07,ONTARIO,M2N7C6,MICHAEL KAZALAC,ROYAL LEPAGE MAXIMUM REALTY,"$539,000",43.7655092,79.4140924,4 hours
2024-07-30,301 - 220 GEORGE STREET,TORONTO C08,ONTARIO,M5A2N1,RYAN TUKE,KELLER WILLIAMS REFERRED URBAN REALTY,"$609,900",43.655682,79.3730722,4 hours
2024-07-30,G17 - 300 MILL ROAD,TORONTO W08,ONTARIO,M9C4W7,ELIZABETH JANE JOHNSON,RE/MAX PROFESSIONALS INC.,"$849,000",43.6386591,79.5843108,5 hours
2024-07-30,33 PAKENHAM DRIVE,TORONTO W10,ONTARIO,M9W4B2,BORIS GUERDJIKOV,RE/MAX PREMIER INC.,"$1,039,000",43.7250973,79.5607128,5 hours
2024-07-30,15 BEECHBOROUGH AVENUE,TORONTO W04,ONTARIO,M6M1Y8,TONY DOMINGUES,SUTTON GROUP-SECURITY REAL ESTATE INC.,"$1,150,000",43.695141,79.4704218,5 hours
2024-07-30,408 - 2645 JANE STREET,TORONTO W05,ONTARIO,M3L2J3,FERNANDO AGUILAR,CENTURY 21 BEST SELLERS LTD.,"$448,800",43.7377398,79.5113598,5 hours
2024-07-30,410 - 16 MCADAM AVENUE,TORONTO W04,ONTARIO,M6A0B9,KEN ONG,CENTURY 21 GREEN REALTY INC.,"$599,000",43.7229146,79.4571199,5 hours
2024-07-30,516 - 2550 LAWRENCE AVENUE E,TORONTO E04,ONTARIO,M1P4Z3,JACKY WU,"T-ONE GROUP REALTY INC.,","$539,900",43.7516958,79.2663985,5 hours
2024-07-30,96 ROCHMAN BOULEVARD,TORONTO E09,ONTARIO,M1H1S2,JOANNE BOLTE,ROYAL LEPAGE CONNECT REALTY,"$849,000",43.7625867,79.2311879,5 hours
2024-07-30,31 NIXON HEIGHTS,TORONTO E04,ONTARIO,M1L0H4,SINNAH S RAJAGOPAL,RE/MAX REALTRON REALTY INC.,"$849,999",43.7029062,79.2743726,5 hours
2024-07-30,4701 - 12 YORK STREET,TORONTO C01,ONTARIO,M5J0B1,DENOSH CUTTALALINGAM,RE/MAX MILLENNIUM REAL ESTATE,"$619,000",43.6417433,79.3819525,5 hours
2024-07-30,47 NORTHCOTE AVENUE,TORONTO C01,ONTARIO,M6J3K2,YAN GUREVICH,HARVEY KALLES REAL ESTATE LTD.,"$2,575,000",43.644257,79.426224,5 hours
2024-07-30,23 - 51 WINLOCK PARK E,TORONTO C14,ONTARIO,M2N4S2,GENCAN LAM,LANDPOWER REAL ESTATE LTD.,"$1,199,000",43.7845345,79.3964501,5 hours
2024-07-30,806 - 175 HILDA AVENUE,TORONTO C07,ONTARIO,M2M1V8,BEN FENLON,ROYAL LEPAGE REAL ESTATE SERVICES LTD.,"$648,000",43.794605,79.4271802,5 hours
2024-07-30,707 - 323 RICHMOND STREET E,TORONTO C08,ONTARIO,M5A4R3,JAY MICHAEL FLEMING,ROYAL LEPAGE YOUR COMMUNITY REALTY,"$888,000",43.6533464,79.3684691,5 hours
2024-07-30,5 WESTHAMPTON DRIVE,TORONTO W09,ONTARIO,M9R1X7,ANTONIO SAADE HOUSH,CENTURY 21 LEADING EDGE REALTY INC.,"$1,269,000",43.7021336,79.5589772,5 hours
2024-07-30,2567 LAKE SHORE BOULEVARD W,TORONTO W06,ONTARIO,M8V1E5,RICHARD ISAAC HIMELFARB,FOREST HILL REAL ESTATE INC.,"$1,995,000",43.6084859,79.4899562,5 hours
2024-07-30,12 CHIMNEY SWIFT COURT,TORONTO W08,ONTARIO,M9B0C6,PETER AHN,CENTRAL HOME REALTY INC.,"$1,999,000",43.6621042,79.5504875,5 hours
2024-07-30,703 - 90 LING ROAD,TORONTO E10,ONTARIO,M1E4Y3,AJ OMARZAYI,ROYAL LEPAGE CREDIT VALLEY REAL ESTATE,"$499,000",43.7677592,79.1839962,5 hours
2024-07-30,45 NORTHCOTE AVENUE,TORONTO C01,ONTARIO,M6J3K2,YAN GUREVICH,HARVEY KALLES REAL ESTATE LTD.,"$2,775,000",43.6442075,79.426191,5 hours
2024-07-30,1611 - 5 DEFRIES STREET,TORONTO C08,ONTARIO,M5A0W7,MATTHEW MAH,RE/MAX EXCEL TITAN,"$529,000",43.6605705,79.3563724,5 hours
2024-07-30,2306 - 62 FOREST MANOR ROAD,TORONTO C15,ONTARIO,M2J0B6,CATHY HUANG,BAY STREET GROUP INC.,"$799,000",43.7744784,79.3460503,5 hours
2024-07-30,420 - 50 ANN O'REILLY ROAD S,TORONTO C15,ONTARIO,M2J0C9,CHUN KEUNG OR,CENTURY 21 ATRIA REALTY INC.,"$555,000",43.7744217,79.3299915,5 hours
2024-07-30,4502 - 15 MERCER STREET,TORONTO C01,ONTARIO,M5V3C6,CATHY HAVERCROFT,BERKSHIRE HATHAWAY HOMESERVICES TORONTO REALTY,"$1,699,000",43.645588,79.3903385,5 hours
2024-07-30,306 - 897 SHEPPARD AVE WEST AVENUE W,TORONTO C06,ONTARIO,M3H2T4,CHRIS REMBISZ,ROYAL LEPAGE REALTY PLUS,"$499,900",43.7516146,79.4554589,5 hours
2024-07-30,77 LOMBARD STREET UNIT# 506,TORONTO,ONTARIO,M5C3E1,JESSIE MACDONALD,"REVEL REALTY INC., BROKERAGE","$599,000",43.65198074,79.37379454,6 hours
2024-07-30,6 ROMANWAY CRESCENT,TORONTO W04,ONTARIO,M9N3S3,JOE BARONE,ROYAL LEPAGE MAXIMUM REALTY,"$995,000",43.6995553,79.5045465,6 hours
2024-07-30,553 MCROBERTS AVENUE,TORONTO W03,ONTARIO,M6E4R5,NELSON ANTONIO CAMPOS,SUTTON GROUP REALTY SYSTEMS INC.,"$999,000",43.6900102,79.4592561,6 hours
2024-07-30,217 GOLFVIEW AVENUE,TORONTO E02,ONTARIO,M4E2K8,JOHN DEN OUDEN,RE/MAX ALL-STARS REALTY INC.,"$799,000",43.6826812,79.3087577,6 hours
2024-07-30,2809 - 126 SIMCOE STREET,TORONTO C01,ONTARIO,M5H4E6,WENDY LI,EDOJIA REALTY INC.,"$595,000",43.6489727,79.3872946,6 hours
2024-07-30,829 - 169 FORT YORK BOULEVARD,TORONTO C01,ONTARIO,M5V0C8,JOHN MARTINO,NEW ERA REAL ESTATE,"$699,900",43.6384989,79.4009491,6 hours
2024-07-30,309 - 1750 BAYVIEW AVENUE,TORONTO C10,ONTARIO,M4G4H6,DENISE PRATTAS,ROYAL LEPAGE SIGNATURE REALTY,"$735,000",43.7107589,79.377457,6 hours
2024-07-30,708 - 30 OLD MILL ROAD W,TORONTO W08,ONTARIO,M8X0A5,KAREN BETH MARSHALL,HARVEY KALLES REAL ESTATE LTD.,"$2,935,000",43.6514739,79.4937815,6 hours
2024-07-30,620 - 140 WIDDICOMBE HILL BOULEVARD,TORONTO W09,ONTARIO,M9R0A9,YESHI TENZIN,KELLER WILLIAMS CO-ELEVATION REALTY,"$685,000",43.6758237,79.55843,6 hours
2024-07-30,19 BUXTON ROAD,TORONTO W05,ONTARIO,M3M1Y6,ANTONIO SIRIANNI,WEISS REALTY LTD.,"$1,099,999",43.73312,79.5013755,6 hours
2024-07-30,105 - 3231 EGLINTON AVENUE E,TORONTO E08,ONTARIO,M1J3N5,BRYEN ANTHONY DALY,REAL ESTATE HOMEWARD,"$349,900",43.7436874,79.2124878,6 hours
2024-07-30,523 - 57 ST JOSEPH STREET,TORONTO C01,ONTARIO,M5S0C5,RAYMOND SEO,RE/MAX REALTY ENTERPRISES INC.,"$1,099,000",43.6654338,79.3879838,6 hours
2024-07-30,512 - 889 BAY STREET,TORONTO C01,ONTARIO,M5S3K5,SHERRY DABIR,ROYAL LEPAGE YOUR COMMUNITY REALTY,"$699,000",43.6629569,79.3862565,6 hours
2024-07-30,63 DAVID DUNLAP CIRCLE,TORONTO C13,ONTARIO,M3C4B9,LOU RAKOVALIS,RE/MAX EXPERTS,"$1,220,000",43.7296695,79.3352802,6 hours
2024-07-30,3906 - 80 JOHN STREET,TORONTO C01,ONTARIO,M5V3X4,HOUMAN SHIRVANI,FOREST HILL REAL ESTATE INC.,"$665,000",43.646771,79.3899912,6 hours
2024-07-30,13 - 40 HARGRAVE LANE,TORONTO C12,ONTARIO,M4N0A4,SUSIE PARK,RE/MAX REALTRON YC REALTY,"$1,628,000",43.7230951,79.3804162,6 hours
2024-07-30,148 HIGHLAND CRESCENT,TORONTO C12,ONTARIO,M2L1H3,BARRY COHEN,RE/MAX REALTRON BARRY COHEN HOMES INC.,"$7,195,000",43.7450262,79.3849816,6 hours
2024-07-30,718 - 2300 ST CLAIR AVENUE W,TORONTO W02,ONTARIO,M6N1K8,MATTHEW CHUEN-CHUEN HUA,IKON REAL ESTATE INC.,"$999,000",43.6704884,79.4781969,7 hours
2024-07-30,90 SPEARS STREET,TORONTO W03,ONTARIO,M6N3X7,TINA KLEIN,REALTY EXECUTIVES PLUS LTD,"$968,900",43.6762324,79.4805862,7 hours
2024-07-30,21 HAROLD STREET,TORONTO W06,ONTARIO,M8Z3R4,XIAOFEI PENG,SMART SOLD REALTY,"$2,179,000",43.6160801,79.5006878,7 hours
2024-07-30,104 - 363 SORAUREN AVENUE,TORONTO W01,ONTARIO,M6R3C1,AVRYLL MCNAIR,BOSLEY REAL ESTATE LTD.,"$699,900",43.6497681,79.444195,7 hours
2024-07-30,25 ROCKWOOD DRIVE,TORONTO E08,ONTARIO,M1M3M9,JULIE HUGHES,KELLER WILLIAMS ADVANTAGE REALTY,"$735,000",43.7298405,79.2295781,7 hours
2024-07-30,12 RODNEY BOULEVARD,TORONTO C14,ONTARIO,M2N4B6,BELLA LEE,FOREST HILL REAL ESTATE INC.,"$5,288,000",43.7763632,79.3949278,7 hours
2024-07-30,535 - 112 GEORGE STREET,TORONTO C08,ONTARIO,M5A2M5,CHRIS KOWAL,ROYAL LEPAGE URBAN REALTY,"$1,025,000",43.6521632,79.3716104,7 hours
2024-07-30,9 D - 66 COLLIER STREET,TORONTO C09,ONTARIO,M4W2N4,FOROHAR HEJAZI,HOME STANDARDS BRICKSTONE REALTY,"$2,675,000",43.6728189,79.3856099,7 hours
2024-07-30,407 - 832 BAY STREET,TORONTO C01,ONTARIO,M5S1Z6,LILY ZHANG,HOMELIFE LANDMARK REALTY INC.,"$579,000",43.6620809,79.3865134,7 hours
2024-07-30,1007 - 5 MASSEY SQUARE,TORONTO E03,ONTARIO,M4C5L6,SHARON YU,REAL ONE REALTY INC.,"$405,000",43.6962848,79.2928,8 hours
2024-07-30,804 - 390 CHERRY STREET,TORONTO C08,ONTARIO,M5A0E2,FRANCESCO JR. LARDI,RE/MAX CONDOS PLUS CORPORATION,"$549,900",43.6505536,79.3573819,8 hours
2024-07-30,1411 - 386 YONGE STREET,TORONTO C01,ONTARIO,M5B0A5,JOE JIA,BAY STREET GROUP INC.,"$639,000",43.6596706,79.3825726,8 hours
2024-07-30,60 ULSTER STREET,TORONTO C01,ONTARIO,M5S1E5,QITING HUANG,SKYLAND REALTY INC.,"$1,488,000",43.6604092,79.4069273,8 hours
2024-07-30,12 - 55 CEDARCROFT BOULEVARD,TORONTO C07,ONTARIO,M2R3Y1,JULIANA TAN NGO,ROYAL LEPAGE CERTIFIED REALTY,"$814,900",43.7826809,79.4493132,8 hours
2024-07-30,98 HEMAN ST STREET,TORONTO W06,ONTARIO,M8V1X5,YESHI TENZIN,KELLER WILLIAMS CO-ELEVATION REALTY,"$985,000",43.6041982,79.4983524,15 hours
2024-07-30,54 PLUMBROOK CRESCENT,TORONTO E07,ONTARIO,M1S3Z8,FERDINAND P. FILARDO,RIGHT AT HOME REALTY,"$949,000",43.7909118,79.2435737,15 hours
2024-07-30,89 HALFMOON SQUARE,TORONTO E10,ONTARIO,M1C3V2,ANNA WOOD,RE/MAX ROUGE RIVER REALTY LTD.,"$1,100,000",43.79532,79.180427,15 hours
2024-07-30,2606 - 16 BONNYCASTLE STREET,TORONTO C08,ONTARIO,M5A4M6,SANDY LIU,HOMELIFE NEW WORLD REALTY INC.,"$725,000",43.6463554,79.365047,15 hours
2024-07-30,2706 - 426 UNIVERSITY AVENUE,TORONTO C01,ONTARIO,M5G1S9,LUCY LIU,HOMELIVING EMPIRE REALTY INC.,"$539,000",43.653957,79.3886581,15 hours
2024-07-30,13 MEADOW OAK PLACE,TORONTO W04,ONTARIO,M9N3Z4,MAX WAWRUCH,RIGHT AT HOME REALTY,"$1,659,000",43.7100091,79.527993,17 hours
2024-07-30,412 - 9 FOUR WINDS DRIVE,TORONTO W05,ONTARIO,M3J2S8,J.D. GAUTAM,KELLER WILLIAMS CO-ELEVATION REALTY,"$524,000",43.764736,79.4935373,21 hours
2024-07-30,380 DIXON ROAD,TORONTO W09,ONTARIO,M9R1T4,ROSE MARIE NAGALLO,RE/MAX METROPOLIS REALTY,"$460,000",43.6952791,79.5577381,21 hours
2024-07-30,2067 - 100 MORNELLE COURT,TORONTO E09,ONTARIO,M1E4X2,MARK SANTA ANA,CENTURY 21 BEST SELLERS LTD.,"$588,000",43.7872772,79.1950138,23 hours
2024-07-30,1102 - 39 PARLIAMENT STREET,TORONTO C08,ONTARIO,M5A4R2,PAUL NAGPAL,RE/MAX HALLMARK REALTY LTD.,"$679,900",43.6498535,79.3617886,23 hours
2024-07-30,16A - 6 ROSEBANK DRIVE,TORONTO E11,ONTARIO,M1B0A1,MOHAMMED HAKIM,ROYAL LEPAGE TERREQUITY REALTY,"$699,000",43.7920765,79.2363071,1 day
2024-07-30,2307 - 21 HILLCREST AVENUE,TORONTO C14,ONTARIO,M2N7K2,KENNY AUYOUNG,RE/MAX CROSSROADS REALTY INC.,"$649,900",43.767512,79.4111952,1 day
2024-07-30,UPH8 - 256 DORIS AVENUE,TORONTO C14,ONTARIO,M2N6X8,MELODY CHONG,PROCONDO REALTY INC.,"$755,000",43.7716108,79.4121372,1 day
2024-07-30,923 - 233 BEECROFT ROAD,TORONTO C07,ONTARIO,M2N6Z9,APRIL LEE,HOMELIFE FRONTIER REALTY INC.,"$649,000",43.7694871,79.416317,1 day
2024-07-30,705 - 25 GRENVILLE STREET,TORONTO C01,ONTARIO,M4Y2X5,CYNTHIA HU,UNION CAPITAL REALTY,"$498,800",43.6617585,79.3846976,1 day
2024-07-30,301 - 117 MCMAHON DRIVE,TORONTO C15,ONTARIO,M2K0E4,JENNY LEE,HOMELIFE LANDMARK REALTY INC.,"$666,000",43.7672372,79.3703088,1 day
2024-07-30,1103 - 207 GALLOWAY ROAD,TORONTO E10,ONTARIO,M1E4X3,KATHYA SIEWRATTAN,HOMELIFE CLASSIC REALTY INC.,"$580,000",43.7667355,79.19628,1 day
2024-07-30,1908 - 256 DORIS AVENUE,TORONTO C14,ONTARIO,M2N6X8,ALICE CHENG,HOMELIFE GOLCONDA REALTY INC.,"$1,080,000",43.7716108,79.4121372,1 day
2024-07-30,503 - 295 ADELAIDE STREET W,TORONTO C01,ONTARIO,M5V0L4,GARY K SUN,POWER 7 REALTY,"$668,000",43.6476752,79.390532,1 day
2024-07-30,4808 - 15 GRENVILLE STREET,TORONTO C01,ONTARIO,M4Y1A1,IAN ZHANG,FIRST CLASS REALTY INC.,"$999,000",43.6618614,79.3841461,1 day
2024-07-30,105 THE QUEENSWAY AVENUE,TORONTO W01,ONTARIO,M6G5B5,MANDEEP KAUR GREWAL,BAY STREET GROUP INC.,"$639,000",43.6359975,79.471368,1 day
2024-07-30,52 GERIGS STREET,TORONTO E04,ONTARIO,M1L0J4,DAVID WEI,EASTIDE REALTY,"$950,800",43.71696,79.28106,1 day
2024-07-30,1602 - 5001 FINCH AVENUE E,TORONTO E07,ONTARIO,M1S5J9,GENUINE LAM,LANDPOWER REAL ESTATE LTD.,"$799,000",43.8073984,79.2676901,1 day
2024-07-30,716 - 629 KING STREET W,TORONTO C01,ONTARIO,M5V0G9,SIMONE CHEN,RE/MAX REALTRON BARRY COHEN HOMES INC.,"$588,500",43.644001,79.4015398,1 day
2024-07-30,12 WALDER AVENUE,TORONTO C10,ONTARIO,M4P2R5,BETTY SO-KWOK,RIGHT AT HOME REALTY,"$3,490,000",43.7109445,79.3817402,1 day
2024-07-30,60 GREENLEAF TERRACE,TORONTO E11,ONTARIO,M1B4H9,ALAN ANCHETA CARILLO,HOMELIFE LANDMARK REALTY INC.,"$889,000",43.8113348,79.2144115,1 day
2024-07-30,PH207 - 300 ALTON TOWERS CIRCLE,TORONTO E07,ONTARIO,M1V4X9,ANTHONY YIP,RE/MAX PARTNERS REALTY INC.,"$579,000",43.8240371,79.2769284,1 day
2024-07-30,1906 - 159 WELLESLEY STREET E,TORONTO C08,ONTARIO,M4Y0H5,JIAN MIAO,RE/MAX EXCEL ALLIANCE REALTY,"$650,000",43.6667703,79.3748964,1 day
2024-07-30,52 YATESBURY ROAD,TORONTO C15,ONTARIO,M2H1E9,LINDA WANG,BAY STREET GROUP INC.,"$1,160,000",43.8006171,79.3760789,1 day
2024-07-30,24 BLUEWATER COURT,TORONTO W06,ONTARIO,M8V4A8,PAUL VAN TRIP,RE/MAX ABOUTOWNE REALTY CORP.,"$1,149,900",43.6217932,79.4884336,1 day
2024-07-30,4303 - 75 QUEENS WHARF ROAD,TORONTO C01,ONTARIO,M5V0J8,LIZ LIU,RE/MAX ATRIUM HOME REALTY,"$708,800",43.6384766,79.3980126,1 day
2024-07-30,508 - 3303 DON MILLS ROAD W,TORONTO C15,ONTARIO,M2J4T6,HAMID REZA SAFIPOOR,RE/MAX HALLMARK REALTY LTD.,"$715,000",43.7918757,79.3534566,1 day
2024-07-30,304 - 28 WELLESLEY STREET E,TORONTO C08,ONTARIO,M4Y0C4,NORMAN XU,ROYAL LEPAGE SIGNATURE REALTY,"$525,000",43.6655193,79.3829212,1 day
2024-07-30,27A ST QUENTIN AVENUE,TORONTO E08,ONTARIO,M1M2M7,ANWARUL AZIM,DREAM VALLEY REALTY INC.,"$1,520,000",43.7175632,79.2376038,1 day
2024-07-30,3312 - 275 YORKLAND ROAD,TORONTO C15,ONTARIO,M2J0B4,CHANTELLE NG,HOMELIFE GOLCONDA REALTY INC.,"$558,000",43.774659,79.3368788,1 day
2024-07-30,1207 - 95 BATHURST STREET,TORONTO C01,ONTARIO,M5V0H7,CHLOE HAN,HOMELIFE LANDMARK REALTY INC.,"$668,000",43.6445805,79.4025579,1 day
2024-07-30,101 - 225 THE DONWAY W,TORONTO C13,ONTARIO,M3B2V7,ADIL ESMAIL,CENTURY 21 PERCY FULTON LTD.,"$1,695,000",43.7386742,79.3465237,1 day
2024-07-30,4103 - 38 GRENVILLE STREET,TORONTO C01,ONTARIO,M4Y1A5,CONNIE ZENG,RE/MAX EXCEL REALTY LTD.,"$1,028,000",43.6618845,79.3857031,1 day
2024-07-30,ADDRESS NOT AVAILABLE,NOT AVAILABLE,NOT AVAILABLE,NOT AVAILABLE,THANA YOGANATHAN,HOMELIFE LANDMARK REALTY INC.,"$699,000",NOT AVAILABLE,NOT AVAILABLE,1 day
2024-07-30,35 CONDOR AVENUE,TORONTO E01,ONTARIO,M4J3M5,MADASRA BIBI,RIGHT AT HOME REALTY,"$2,300,000",43.6751411,79.3347902,1 day
2024-07-30,1916 - 23 LORRAINE DRIVE,TORONTO C07,ONTARIO,M2N6Z6,IVY WEN,RE/MAX REALTRON REALTY INC.,"$569,800",43.7783026,79.4167177,1 day
2024-07-30,7608 - 55 COOPER STREET,TORONTO C08,ONTARIO,M5E0G1,MARINA PREMYSLOVA,RE/MAX REALTRON REALTY INC.,"$610,000",43.6448919,79.3717808,1 day
2024-07-30,32 CHINOOK TRAIL,TORONTO C13,ONTARIO,M3B0B4,LOVISH GUPTA,RIGHT AT HOME REALTY,"$1,699,000",43.7404379,79.3417999,1 day
2024-07-30,1306 - 159 WELLESLEY STREET S,TORONTO C08,ONTARIO,M4Y0H5,JEANY LIU,AIMHOME REALTY INC.,"$658,800",43.6667703,79.3748964,1 day
2024-07-30,1707 - 58 ORCHARD VIEW BOULEVARD,TORONTO C03,ONTARIO,M4R1B9,HWAN KIM,RIGHT AT HOME REALTY,"$799,000",43.7081369,79.4005574,1 day
2024-07-30,703 - 188 FAIRVIEW MALL DRIVE,TORONTO C15,ONTARIO,M2J4T1,JESSICA LA,BEST UNION REALTY INC.,"$498,000",43.7802735,79.3413265,1 day
2024-07-30,127 - 2 OLD MILL DRIVE,TORONTO W01,ONTARIO,M6S0A5,JOSEPH SYPOSZ,SOTHEBY'S INTERNATIONAL REALTY CANADA,"$759,900",43.6482072,79.4873658,2 days
2024-07-30,869 SCARBOROUGH GOLF CLUB ROAD,TORONTO E09,ONTARIO,M1G1J4,SANDEEP SHANKAR KADAM,CENTURY 21 PERCY FULTON LTD.,"$1,098,000",43.7715854,79.2190289,2 days
2024-07-30,60 BOEM AVENUE,TORONTO E04,ONTARIO,M1R3T5,NAZ CENGIZ,CENTURY 21 PERCY FULTON LTD.,"$2,388,000",43.7494084,79.2938665,2 days
2024-07-30,201 - 180 MARKHAM ROAD,TORONTO E08,ONTARIO,M1M2Z9,VERN BALACHANDRAN,ROYAL LEPAGE IGNITE REALTY,"$479,000",43.7416633,79.2193215,2 days
2024-07-30,10 BECKY CHEUNG COURT,TORONTO C14,ONTARIO,M2M0B7,MIKE LI,FIRST CLASS REALTY INC.,"$2,689,900",43.7894309,79.4091745,2 days
2024-07-30,425 - 119 MERTON STREET,TORONTO C10,ONTARIO,M4S3G5,JONATHAN GUCCI,ROYAL LEPAGE SIGNATURE SUSAN GUCCI REALTY,"$759,000",43.6967977,79.3923687,2 days
2024-07-30,380 - 415 JARVIS STREET,TORONTO C08,ONTARIO,M4Y3C1,SHAUN HSU,SUTTON GROUP-ASSOCIATES REALTY INC.,"$750,000",43.6636254,79.3760782,2 days
2024-07-30,2503 - 115 MCMAHON DRIVE,TORONTO C15,ONTARIO,M2K0E3,JEFF FAN,FIRST CLASS REALTY INC.,"$766,000",43.7669863,79.371042,2 days
2024-07-30,5 WALFORD ROAD,TORONTO W08,ONTARIO,M8X2N9,ASKO JOSEPH MARJANOVIC,HAZELTON REAL ESTATE INC.,"$1,799,000",43.6574579,79.5051226,2 days
2024-07-30,58 FRANKTON CRESCENT,TORONTO W05,ONTARIO,M3J1C1,ERIC YLAGAN,HOMELIFE HEARTS REALTY INC.,"$1,158,888",43.7533184,79.4951996,2 days
2024-07-30,118 WHEELER AVENUE,TORONTO E02,ONTARIO,M4L3V2,SUE YEUNG,ROYAL LEPAGE SIGNATURE REALTY,"$1,049,900",43.6741843,79.3007417,2 days
2024-07-30,150 WARDEN AVENUE,TORONTO E06,ONTARIO,M1N2Z4,MUSKA WAHEED,RE/MAX ACE REALTY INC.,"$1,779,000",43.6864777,79.2706633,2 days
2024-07-30,147 MANSE ROAD,TORONTO E10,ONTARIO,M1E3V2,DINESH BALASUBRAMANIAM,CENTURY 21 PERCY FULTON LTD.,"$2,074,900",43.7627136,79.1725833,2 days
2024-07-30,615 - 75 CANTERBURY PLACE N,TORONTO C07,ONTARIO,M2N0L2,LOUISA SHENG,CENTURY 21 MYPRO REALTY,"$778,000",43.774199,79.4152874,2 days
2024-07-30,1237 - 28 SOMMERSET WAY,TORONTO C14,ONTARIO,M2N6W7,LARRY LEE,SINCERE REALTY INC.,"$1,090,000",43.7766976,79.4110598,2 days
2024-07-30,1205 - 33 SHEPPARD AVENUE E,TORONTO C14,ONTARIO,M2N7K1,FARHAD SHAHAMI,RIGHT AT HOME REALTY,"$675,888",43.7612797,79.409009,2 days
2024-07-30,170 ELMHURST DRIVE,TORONTO W10,ONTARIO,M9W2L1,DAVINDER SINGH ATHI,RE/MAX PRESIDENT REALTY,"$1,099,000",43.726503,79.565145,2 days
2024-07-30,71 WINSTANLY CRESCENT,TORONTO E11,ONTARIO,M1B1N3,SHAKHAWAT HOSSAIN,RE/MAX ACE REALTY INC.,"$1,249,000",43.801904,79.2085139,2 days
2024-07-30,249 CATALINA DRIVE,TORONTO E08,ONTARIO,M1E1B8,LORRAINE PRATA,ROYAL LEPAGE TERREQUITY REALTY,"$1,219,999",43.7447167,79.1989402,2 days
2024-07-30,1426 - 18 MONDEO DRIVE,TORONTO E04,ONTARIO,M1P5C8,NAYAN PATEL,ROYAL LEPAGE SIGNATURE REALTY,"$670,000",43.7642438,79.289862,2 days
2024-07-30,702 - 386 YONGE STREET,TORONTO C01,ONTARIO,M5B0A5,PAT PUSHPAKANTHAN,RE/MAX ACE REALTY INC.,"$999,888",43.6590805,79.3823585,2 days
2024-07-30,312 - 25 SUNNY GLEN WAY,TORONTO C11,ONTARIO,M3C2Z5,CHERRY WU,RE/MAX EXCEL REALTY LTD.,"$599,900",43.7101014,79.3302884,2 days
2024-07-30,624 - 51 TROLLEY CRESCENT,TORONTO C08,ONTARIO,M5A0E9,CAMILO ANDRES GAMEZ CUESTA,THE AGENCY,"$505,000",43.6569809,79.355378,2 days
2024-07-30,2305 - 18 HOLMES AVENUE,TORONTO C14,ONTARIO,M2N0E1,JOSEPH C. LEUNG,LIVING REALTY INC.,"$769,000",43.7784859,79.4133299,2 days
2024-07-30,709 W - 565 WILSON AVENUE,TORONTO C06,ONTARIO,M3H0C6,MAGDALENA ARCOS,RE/MAX PREMIER INC.,"$788,000",43.7341968,79.4480242,2 days
2024-07-30,70 FORT YORK BOULEVARD,TORONTO C01,ONTARIO,M5V4A6,BAHAREH BAHARIAN,SUTTON GROUP-ADMIRAL REALTY INC.,"$1,499,000",43.6400453,79.3965799,2 days
2024-07-30,4107 - 82 DALHOUSIE STREET,TORONTO C08,ONTARIO,M5B0C5,KARIM KABANI,CENTURY 21 LEADING EDGE REALTY INC.,"$1,350,000",43.6557378,79.3764533,2 days
2024-07-30,1504 - 100 HAYDEN STREET,TORONTO C08,ONTARIO,M4Y3C7,NICOLE EIRAS,"KELLER WILLIAMS ENERGY REAL ESTATE, BROKERAGE","$610,000",43.6705901,79.3816414,2 days
2024-07-30,919 - 65 SCADDING AVENUE,TORONTO C08,ONTARIO,M5A4L1,HOLLY LEANNE FEDORCZENKO,ROYAL LEPAGE SIGNATURE REALTY,"$775,000",43.6489833,79.3652257,2 days
2024-07-30,24 SKELMORE CRESCENT,TORONTO C13,ONTARIO,M3A2G8,TAO BAI,FIRST CLASS REALTY INC.,"$1,288,000",43.7659188,79.3333531,2 days
2024-07-30,3307 - 8 CHARLOTTE STREET,TORONTO C01,ONTARIO,M5V0K4,SAVANNAH WENG,RE/MAX DASH REALTY,"$775,000",43.6460181,79.3938391,2 days
2024-07-30,55 SHAUGHNESSY BOULEVARD,TORONTO C15,ONTARIO,M2J1H9,SIMON TAM,PROMPTON REAL ESTATE SERVICES CORP.,"$2,099,000",43.772476,79.3525167,2 days
2024-07-30,3601 - 20 LOMBARD STREET,TORONTO C08,ONTARIO,M5C0A7,HARRY LUO,REAL ONE REALTY INC.,"$648,000",43.6516524,79.3769603,2 days
2024-07-30,2709 - 30 GRAND TRUNK CRESCENT,TORONTO C01,ONTARIO,M5J3A4,LARRY MEDINA,RARE REAL ESTATE,"$698,000",43.6422693,79.3828647,2 days
2024-07-30,202 - 36 ZORRA STREET,TORONTO W08,ONTARIO,M8Z4Z7,SAROOSH FATIMA,HOMELIFE/MIRACLE REALTY LTD,"$499,000",43.6197417,79.5217377,2 days
2024-07-30,509 - 1 LEE CENTRE DRIVE,TORONTO E09,ONTARIO,M1H3J2,LINDA Y.S. LAU,RIGHT AT HOME REALTY,"$570,000",43.7813124,79.2452782,2 days
2024-07-30,805 - 33 BAY STREET,TORONTO C01,ONTARIO,M5J2Z3,AMY QU,RE/MAX REALTRON REALTY INC.,"$609,000",43.6427875,79.3771823,2 days
2024-07-30,2203 - 5 NORTHTOWN WAY,TORONTO C14,ONTARIO,M2N7A1,RICK TIAN,BAY STREET GROUP INC.,"$620,000",43.7749287,79.4136325,2 days
2024-07-30,16C - 6 ROSEBANK DRIVE,TORONTO E11,ONTARIO,M1B0A1,JOYCE SUN,BAY STREET GROUP INC.,"$629,900",43.7918102,79.2374645,2 days
2024-07-30,5531 LAWRENCE AVENUE E,TORONTO E10,ONTARIO,M1C5K4,TONYA MCINTYRE,RE/MAX HALLMARK FIRST GROUP REALTY LTD.,"$899,900",43.7790007,79.1380484,2 days
2024-07-30,1611 - 85 MCMAHON DRIVE,TORONTO C15,ONTARIO,M2K0H1,WENTIN HUANG,MEHOME REALTY (ONTARIO) INC.,"$670,000",43.76644,79.37273,2 days
2024-07-30,347 GLADSTONE AVENUE,TORONTO C01,ONTARIO,M6H3H5,MELINDA WU,RE/MAX ATRIUM HOME REALTY,"$1,750,000",43.6534699,79.4309822,2 days
2024-07-30,4207 - 501 YONGE STREET,TORONTO C08,ONTARIO,M4Y0G8,JASON HUAN CHEN,HOMELIFE NEW WORLD REALTY INC.,"$748,800",43.6631881,79.3836001,2 days
2024-07-30,1310 - 600 FLEET STREET,TORONTO C01,ONTARIO,M5V1B7,CHRIS GAWRYS,GOWEST REALTY LTD.,"$499,800",43.6369395,79.4001658,2 days
2024-07-30,600 FLEET STREET UNIT# 1310,TORONTO,ONTARIO,M5V1B7,CHRIS GAWRYS,"GOWEST REALTY LTD., BROKERAGE","$499,800",43.63674966,79.40017465,2 days
2024-07-30,201 CHAMBERS AVENUE,TORONTO W03,ONTARIO,M6N3M5,ANDREW CAMPIAN,RE/MAX PLATINUM PIN REALTY,"$775,000",43.6819694,79.4651382,2 days
2024-07-30,26 KITTIWAKE AVENUE,TORONTO W10,ONTARIO,M9V4P6,OVI CORNEA,CITYSCAPE REAL ESTATE LTD.,"$930,000",43.7348092,79.5966094,2 days
2024-07-30,607 - 5 VALHALLA INN ROAD,TORONTO W08,ONTARIO,M9B0B1,HARINDER S. MALHANS,HOMELIFE SILVERCITY REALTY INC.,"$565,000",43.6403217,79.5597743,2 days
2024-07-30,32 - 24 FUNDY BAY BOULEVARD,TORONTO E05,ONTARIO,M1W3A4,HEATHER HE,RE/MAX REALTRON AWCT REALTY,"$799,000",43.8112745,79.3134118,2 days
2024-07-30,2502 - 85 SKYMARK DRIVE,TORONTO C15,ONTARIO,M2H3P2,STEVE ASIKIS,GATE REAL ESTATE INC.,"$769,900",43.7961458,79.3539331,2 days
2024-07-30,2508 - 251 JARVIS STREET,TORONTO C08,ONTARIO,M5B0C3,DANNY RO,MEHOME REALTY (ONTARIO) INC.,"$649,000",43.6573767,79.3744501,2 days
2024-07-30,611 - 375 KING STREET W,TORONTO C01,ONTARIO,M5V1K5,ADITI NAGPAL,ANCHOR NEW HOMES INC.,"$499,000",43.6457486,79.3930826,2 days
2024-07-30,136 CHURCH AVENUE S,TORONTO C14,ONTARIO,M2N4G2,MOSTAFA DAMAVANDI ASLI,RE/MAX CROSSROADS REALTY INC.,"$2,688,000",43.775939,79.4054138,2 days
2024-07-30,1804 - 60 PAVANE LINKWAY,TORONTO C11,ONTARIO,M3C2Y6,KHURRAM KHAN,BAY STREET GROUP INC.,"$479,000",43.7114093,79.3222622,2 days
2024-07-30,2712 - 70 FOREST MANOR ROAD,TORONTO C15,ONTARIO,M2J1M6,CRISTAL LI,BAY STREET GROUP INC.,"$789,000",43.7745395,79.3449495,2 days
2024-07-30,109 - 120 HARRISON GARDEN BOULEVARD,TORONTO C14,ONTARIO,M2H0H1,MICHAEL BUN-SHING TANG,CENTURY 21 ATRIA REALTY INC.,"$690,000",43.7580581,79.4033368,2 days
2024-07-30,1723 - 234 SIMCOE STREET,TORONTO C01,ONTARIO,M5T1T4,KARL YU,HOMELIFE LANDMARK REALTY INC.,"$690,000",43.6533594,79.3887858,2 days
2024-07-30,806 - 455 WELLINGTON STREET W,TORONTO C01,ONTARIO,M5V0V8,EDWARD NG,RE/MAX ROUGE RIVER REALTY LTD.,"$2,249,000",43.6433755,79.3972344,2 days
2024-07-30,1211 - 251 MANITOBA STREET,TORONTO W06,ONTARIO,M8Y4G9,ANDREW SCERBINA,SEARCH REALTY,"$569,000",43.6238372,79.4893647,2 days
2024-07-30,109 - 121 FORD STREET,TORONTO W03,ONTARIO,M6N3A2,JODH TOOR,CENTURY 21 KENNECT REALTY,"$980,000",43.6732579,79.4621497,2 days
2024-07-30,44 EDGECROFT ROAD,TORONTO W07,ONTARIO,M8Z2B8,VLADIMIR TRKULJA,CENTURY 21 REGAL REALTY INC.,"$1,449,000",43.6294453,79.5094384,2 days
2024-07-30,15 BURLINGTON STREET,TORONTO W06,ONTARIO,M8V2L1,JESSICA LA,BEST UNION REALTY INC.,"$1,299,000",43.6177196,79.4879847,2 days
2024-07-30,ADDRESS NOT AVAILABLE,NOT AVAILABLE,NOT AVAILABLE,NOT AVAILABLE,MEI DING,MASTER'S TRUST REALTY INC.,"$1,088,000",NOT AVAILABLE,NOT AVAILABLE,2 days
2024-07-30,83 NORTHERN DANCER BOULEVARD,TORONTO E02,ONTARIO,M4L3Z8,NATASZA TYZLER,HAMMOND INTERNATIONAL PROPERTIES LIMITED,"$3,880,000",43.6662852,79.3106308,2 days
2024-07-30,29 SCOTLAND ROAD,TORONTO E07,ONTARIO,M1S1L5,MILLY CHEE,HOMELIFE LANDMARK REALTY INC.,"$2,280,000",43.7950757,79.2836299,2 days
2024-07-30,3104 - 125 VILLAGE GREEN SQUARE,TORONTO E07,ONTARIO,M1S0G3,PAUL CHI-CHOW CHENG,EXP REALTY,"$689,000",43.7775233,79.2812387,2 days
2024-07-30,207 - 180 MARKHAM ROAD,TORONTO E08,ONTARIO,M1M2Z9,MAHBIZ RAHBAR-AZAD,BAY STREET GROUP TPRT,"$460,000",43.7416633,79.2193215,2 days
2024-07-30,2101 - 88 DAVENPORT AVENUE,TORONTO C02,ONTARIO,M5R0A5,JUDY HENDLER,FOREST HILL REAL ESTATE INC.,"$6,495,000",43.6733378,79.3904347,2 days
2024-07-30,317 - 215 FORT YORK BOULEVARD,TORONTO C01,ONTARIO,M5V4A2,KAPAL SHARMA,CENTURY 21 PEOPLE'S CHOICE REALTY INC.,"$615,000",43.6366434,79.4046054,2 days
2024-07-30,608 - 20 GLADSTONE AVENUE,TORONTO C01,ONTARIO,M6J0E9,MIGUEL LIMA,CENTURY 21 HERITAGE GROUP LTD.,"$650,000",43.6435066,79.4276907,2 days
2024-07-30,204 PEMBERTON AVENUE,TORONTO C14,ONTARIO,M2M1Y8,JECA WONG,FIRST CLASS REALTY INC.,"$1,799,000",43.7839422,79.4017758,2 days
2024-07-30,1010 - 50 MCCAUL STREET,TORONTO C01,ONTARIO,M5T0B6,E.K. WEERASINGHE,RE/MAX PROFESSIONALS INC.,"$779,000",43.6518066,79.3906374,2 days
2024-07-30,1905 - 125 BLUE JAYS WAY,TORONTO C01,ONTARIO,M5V0N5,SONG HE,IPRO REALTY LTD.,"$850,000",43.6460612,79.3909396,2 days
2024-07-30,315 - 88 GRANDVIEW WAY,TORONTO C14,ONTARIO,M2N6V6,LINDA XU,REAL ONE REALTY INC.,"$719,000",43.7747202,79.4121931,2 days
2024-07-30,608 - 38 CAMERON STREET,TORONTO C01,ONTARIO,M5T0C3,ALFRED MAN HO LEE,LIVING REALTY INC.,"$1,550,000",43.6496919,79.39822,2 days
2024-07-30,1305 - 170 SUMACH STREET,TORONTO C08,ONTARIO,M5A0C3,MICHELLE ZHAO,RE/MAX EXCEL REALTY LTD.,"$460,000",43.6602911,79.3606615,2 days
2024-07-30,2715 - 29 SINGER COURT,TORONTO C15,ONTARIO,M2K0B3,CALVIN XU,KELLER WILLIAMS REFERRED URBAN REALTY,"$548,000",43.7692161,79.3688897,2 days
2024-07-30,20 GLADSTONE AVENUE,"UNIT #608
TORONTO",ONTARIO,M6J0E9,MIGUEL LIMA,CENTURY 21 HERITAGE GROUP LTD.,"$650,000",43.643449,79.427777,2 days
2024-07-30,199 WILLOWRIDGE ROAD,TORONTO W09,ONTARIO,M9R3Z8,RAFAELA T. DAMASCENO VELOSO,IPRO REALTY LTD.,"$999,999",43.676129,79.5736947,2 days
2024-07-30,103 LONBOROUGH AVENUE,TORONTO W04,ONTARIO,M6M1X7,DEANNA-MARIE SCATTOLIN,CENTURY 21 MILLENNIUM INC.,"$940,000",43.6931254,79.4720301,2 days
2024-07-30,2715 - 29 SINGER COURT,TORONTO C15,ONTARIO,M2K0B3,CALVIN XU,KELLER WILLIAMS REFERRED URBAN REALTY,"$548,000",43.7692161,79.3688897,2 days
2024-07-30,20 GLADSTONE AVENUE,"UNIT #608
TORONTO",ONTARIO,M6J0E9,MIGUEL LIMA,CENTURY 21 HERITAGE GROUP LTD.,"$650,000",43.643449,79.427777,2 days
2024-07-30,199 WILLOWRIDGE ROAD,TORONTO W09,ONTARIO,M9R3Z8,RAFAELA T. DAMASCENO VELOSO,IPRO REALTY LTD.,"$999,999",43.676129,79.5736947,2 days
2024-07-30,103 LONBOROUGH AVENUE,TORONTO W04,ONTARIO,M6M1X7,DEANNA-MARIE SCATTOLIN,CENTURY 21 MILLENNIUM INC.,"$940,000",43.6931254,79.4720301,2 days
2024-07-30,49 ALLENBY AVENUE,TORONTO W10,ONTARIO,M9W1S5,LISA LI,IPRO REALTY LTD.,"$849,000",43.7120826,79.5495008,2 days
2024-07-30,2810 - 2220 LAKESHORE BOULEVARD W,TORONTO W06,ONTARIO,M8V0C1,PAUL TING PONG LO,CENTURY 21 KING'S QUAY REAL ESTATE INC.,"$599,000",43.6228596,79.4831828,2 days
2024-07-30,129 - 1081 DANFORTH ROAD,TORONTO E08,ONTARIO,M1J0B2,MUHAMMAD IMRAN TABASSAM,RIGHT AT HOME REALTY,"$629,900",43.736187,79.2464805,2 days
2024-07-30,LW1 - 90 BROADVIEW AVENUE,TORONTO E01,ONTARIO,M4M0A7,ALFRED MAN HO LEE,LIVING REALTY INC.,"$700,000",43.6579923,79.3497395,2 days
2024-07-30,340 - 18 MONDEO DRIVE,TORONTO E04,ONTARIO,M1P5C8,JORA SINGH GARCHA,RE/MAX GOLD REALTY INC.,"$539,900",43.7642438,79.289862,2 days
2024-07-30,209 INVERGORDON AVENUE,TORONTO E07,ONTARIO,M1S3Z1,LINDA CHEN,HOMELIFE LANDMARK REALTY INC.,"$999,000",43.788678,79.2439019,2 days
2024-07-30,705 - 2628 MCCOWAN ROAD,TORONTO E07,ONTARIO,M1S5J8,JEFFREY CHENG,RARE REAL ESTATE,"$500,000",43.8069337,79.2667061,2 days
2024-07-30,18 PANAMA COURT S,TORONTO E09,ONTARIO,M1H1W9,SIMONE TAFFE,CENTURY 21 TITANS REALTY INC.,"$999,990",43.7656346,79.232317,2 days
2024-07-30,31 CHATTERTON BOULEVARD,TORONTO E08,ONTARIO,M1M2G3,OLIVIA TORUN,RE/MAX REALTY ENTERPRISES INC.,"$1,125,000",43.7357575,79.2230643,2 days
2024-07-30,24 PARKDENE COURT,TORONTO E05,ONTARIO,M1W2J3,KEVIN LIN,HARBOUR KEVIN LIN HOMES,"$1,000,000",43.800429,79.3311941,2 days
2024-07-30,24 PITCHPINE DRIVE,TORONTO E11,ONTARIO,M1X1W5,AJ KANAPATHIPILLAI,RE/MAX COMMUNITY REALTY INC.,"$1,199,900",43.8313537,79.2364191,2 days
2024-07-30,147 FITZGIBBON AVENUE,TORONTO E08,ONTARIO,M1K4A6,KEITH DERRICK BUTLER,HOMELIFE/CIMERMAN REAL ESTATE LIMITED,"$1,000,000",43.7451404,79.2634608,2 days
2024-07-30,803A - 88 CORPORATE DRIVE,TORONTO E09,ONTARIO,M1H3G6,DINESH SRIKANTHAN,CENTURY 21 INNOVATIVE REALTY INC.,"$620,000",43.7808872,79.249712,2 days
2024-07-30,5 TANGLE BRIARWAY,TORONTO C15,ONTARIO,M2J2M5,SINA MOVAHEDI,CHESTNUT PARK REAL ESTATE LIMITED,"$999,000",43.7837918,79.367123,2 days
2024-07-30,208 - 10 NAVY WHARF COURT,TORONTO C01,ONTARIO,M5V3V2,ALFRED MAN HO LEE,LIVING REALTY INC.,"$1,000,000",43.6404514,79.3919349,2 days
2024-07-30,2802 - 3 REAN DRIVE,TORONTO C15,ONTARIO,M2K1H1,FARHANG FRANK ZADAFSHAR,ROYAL LEPAGE TERREQUITY REALTY,"$1,388,888",43.7654154,79.3829416,2 days
2024-07-30,#910 - 25 ADRA GRADO WAY,TORONTO C15,ONTARIO,M2J0H6,BONNIE BO LI,HOMELIFE LANDMARK REALTY INC.,"$889,000",43.7763756,79.3659472,2 days
2024-07-30,1611 - 395 BLOOR STREET E,TORONTO C08,ONTARIO,M4W0B4,KELVIN WONG,LIVING REALTY INC.,"$649,900",43.6719746,79.3774195,2 days
2024-07-30,2611 - 8 PARK ROAD,TORONTO C09,ONTARIO,M4W3S5,ALFRED MAN HO LEE,LIVING REALTY INC.,"$770,000",43.6712434,79.3847264,2 days
2024-07-30,388 OAKWOOD AVENUE,TORONTO C03,ONTARIO,M6E2W3,MUNISH LUMB,HOMELIFE/MIRACLE REALTY LTD,"$2,249,999",43.6877876,79.4392223,2 days
2024-07-30,905 - 1 BLOOR STREET E,TORONTO C08,ONTARIO,M4W1A9,MICHAEL N. MEALIA,RE/MAX HALLMARK REALTY LTD.,"$689,000",43.6701587,79.3862462,2 days
2024-07-30,1217 - 352 FRONT STREET W,TORONTO C01,ONTARIO,M5V1B5,FAN JIANG,FIRST CLASS REALTY INC.,"$588,000",43.6433534,79.3924515,2 days
2024-07-30,304 - 1 SCOTT STREET,TORONTO C08,ONTARIO,M5E1A1,MULAFFER SHANAWAZ,HOMELIFE GALAXY REAL ESTATE LTD.,"$1,159,000",43.6468252,79.3751298,2 days
2024-07-30,1404 - 2221 YONGE STREET,TORONTO C10,ONTARIO,M4S0B8,RYAN CHAN,RE/MAX CROSSROADS REALTY INC.,"$619,900",43.7060642,79.3977203,2 days
2024-07-30,1410 - 770 BAY STREET,TORONTO C01,ONTARIO,M5G1N6,SHI CHENG,JDL REALTY INC.,"$798,000",43.6600829,79.3860086,2 days
2024-07-30,3609 - 397 FRONT STREET W,TORONTO C01,ONTARIO,M5V3R8,ALFRED MAN HO LEE,LIVING REALTY INC.,"$710,000",43.6426397,79.3935863,2 days
2024-07-30,5607 - 180 UNIVERSITY AVENUE,TORONTO C01,ONTARIO,M5H0A2,TATIANA BRUDNY,RIGHT AT HOME REALTY,"$1,295,000",43.6488268,79.386259,2 days
2024-07-30,517 - 169 FORT YORK BOULEVARD,TORONTO C01,ONTARIO,M5V0C8,MICHAEL ANDREW ROY,SUTTON GROUP OLD MILL REALTY INC.,"$535,000",43.6384989,79.4009491,2 days
2024-07-30,2203 - 25 TELEGRAM MEWS,TORONTO C01,ONTARIO,M5V3Z1,ALFRED MAN HO LEE,LIVING REALTY INC.,"$570,000",43.6411454,79.3942451,2 days
2024-07-30,2102 - 403 CHURCH STREET,TORONTO C08,ONTARIO,M4Y2C2,SONG ZHANG,HOMELIFE/REALTY ONE LTD.,"$965,000",43.6622664,79.3792077,2 days
2024-07-30,201 - 76 SHUTER STREET,TORONTO C08,ONTARIO,M5B1B4,CAMERON WILLIAM THORNTON,BOSLEY REAL ESTATE LTD.,"$499,000",43.6552936,79.3753623,2 days
2024-07-30,2505 - 30 ORDNANCE STREET,TORONTO C01,ONTARIO,M6K0C8,JEFF JOSEPH THOMAS,METRO-WIDE REALTY LTD.,"$775,000",43.6398317,79.4098558,2 days
2024-07-30,319 - 320 RICHMOND STREET E,TORONTO C08,ONTARIO,M5A1P9,BALAN MANIAN,ROYAL LEPAGE SIGNATURE REALTY,"$629,800",43.6535819,79.3687903,2 days
2024-07-30,1317 - 38 MONTE KWINTER COURT,TORONTO C06,ONTARIO,M3H0E2,RICHARD ZHENG,BAY STREET GROUP INC.,"$499,000",43.7335675,79.4488309,2 days
2024-07-30,159 EARLSDALE AVENUE,TORONTO C03,ONTARIO,M6E1L3,TONY PASQUARELLI,SUTTON GROUP-ADMIRAL REALTY INC.,"$2,248,888",43.6849296,79.4393603,2 days
2024-07-30,1006 - 31 TIPPETT ROAD,TORONTO C06,ONTARIO,M3H0C8,VICTOR LU,BAY STREET INTEGRITY REALTY INC.,"$629,900",43.7335125,79.4460849,2 days
2024-07-30,320 - 585 BLOOR STREET E,TORONTO C08,ONTARIO,M4W0B3,CHRISTINA M. CHAN,CENTURY 21 ATRIA REALTY INC.,"$639,000",43.6717536,79.3714449,2 days
2024-07-30,#611 - 398 EGLINTON AVENUE E,TORONTO C10,ONTARIO,M4P3H8,ARI ZADEGAN,RE/MAX HALLMARK ARI ZADEGAN GROUP REALTY,"$525,000",43.7095254,79.3859929,2 days
2024-07-30,2805 - 2221 YONGE STREET,TORONTO C10,ONTARIO,M4S2B4,MIKE ZHOU,AIMHOME REALTY INC.,"$573,000",43.7060642,79.3977203,2 days
2024-07-30,31 CHATTERTON BOULEVARD,TORONTO,ONTARIO,M1M2G3,OLIVIA TORUN,REMAX REALTY ENTERPRISES INC,"$1,125,000",43.73573885,79.22308576,3 days
2024-07-30,218 - 2 FIELDWAY ROAD,TORONTO W08,ONTARIO,M8Z0B9,TENZIN KHEDUP,CENTURY 21 PEOPLE'S CHOICE REALTY INC.,"$674,000",43.6431801,79.5270255,3 days
2024-07-30,1605 - 1 ROWNTREE ROAD,TORONTO W10,ONTARIO,M9V5G7,VINS PATEL,CENTURY 21 PEOPLE'S CHOICE REALTY INC.,"$598,000",43.7512238,79.5830043,3 days
2024-07-30,105 - 320 DIXON ROAD,TORONTO W09,ONTARIO,M9R1S8,DANIELLE DESJARDINS,ROYAL LEPAGE SIGNATURE REALTY,"$399,900",43.6966281,79.5522517,3 days
2024-07-30,43 ASHFIELD DRIVE,TORONTO W08,ONTARIO,M9C4T7,DEAN BANASCO,RE/MAX REALTY SPECIALISTS INC.,"$1,189,990",43.6663002,79.5831729,3 days
2024-07-30,121 - 5233 DUNDAS STREET W,TORONTO W08,ONTARIO,M9B6M1,JONATHAN INGALL,RE/MAX PROFESSIONALS INC.,"$445,000",43.6388516,79.5368851,3 days
2024-07-30,41 SOUTH KINGSLEA DRIVE,TORONTO W07,ONTARIO,M8Y2A5,PAUL AMBLER,RE/MAX PROFESSIONALS INC.,"$2,498,000",43.6413147,79.495939,3 days
2024-07-30,608 - 816 LANSDOWNE AVENUE,TORONTO W02,ONTARIO,M6H4K6,ALEC WONG,WORLD CLASS REALTY POINT,"$629,000",43.665605,79.4473711,3 days
2024-07-30,86 RORY ROAD,TORONTO W04,ONTARIO,M6L3G1,CHAITANYA BANSAL,HOUSEEO REALTY,"$999,900",43.7202711,79.4867017,3 days
2024-07-30,1136 BRIMLEY ROAD,TORONTO,ONTARIO,M1P3G3,MICHELE DUNLOP,KELLER WILLIAMS REAL ESTATE ASSOCIATES,"$1,179,900",43.76342224,79.25897035,3 days
2024-07-30,82 QUANTRELL TRAIL,TORONTO E11,ONTARIO,M1B1L8,MEI KUEN HEUNG,CENTURY 21 KING'S QUAY REAL ESTATE INC.,"$699,000",43.8034467,79.2157298,3 days
2024-07-30,601 - 2033 KENNEDY ROAD,TORONTO E07,ONTARIO,M1T0B9,RAMESH KANHAI,CENTURY 21 LEADING EDGE REALTY INC.,"$599,900",43.7769928,79.2838947,3 days
2024-07-30,PH104 - 90 LING ROAD,TORONTO E10,ONTARIO,M1E4Y3,SUTHARSAN MAHADEVAN,RE/MAX CROSSROADS REALTY INC.,"$399,900",43.7677592,79.1839962,3 days
2024-07-30,24 DEWEY DRIVE,TORONTO E04,ONTARIO,M1R3K4,WINNIE WAI LAM TSE,LANDPOWER REAL ESTATE LTD.,"$1,100,000",43.7557305,79.3074057,3 days
2024-07-30,2004 - 1328 BIRCHMOUNT ROAD,TORONTO E04,ONTARIO,M1R0B6,THARAN VINAYAGAMOORTHY,RE/MAX ACE REALTY INC.,"$499,000",43.7485378,79.2861688,3 days
2024-07-30,1060 WOODBINE AVENUE,TORONTO E03,ONTARIO,M4C4C5,CHRISTINA MARIE PAISLEY,ROYAL LEPAGE SIGNATURE REALTY,"$999,000",43.68838,79.3142322,3 days
2024-07-30,3 LOWELL AVENUE,TORONTO E08,ONTARIO,M1M3M7,ERROL MOTT,RIGHT AT HOME REALTY,"$1,030,000",43.7293548,79.231612,3 days
2024-07-30,2004 - 1328 BIRCHMOUNT ROAD,TORONTO E04,ONTARIO,M1R0B6,THARAN VINAYAGAMOORTHY,RE/MAX ACE REALTY INC.,"$499,000",43.7485378,79.2861688,3 days
2024-07-30,1060 WOODBINE AVENUE,TORONTO E03,ONTARIO,M4C4C5,CHRISTINA MARIE PAISLEY,ROYAL LEPAGE SIGNATURE REALTY,"$999,000",43.68838,79.3142322,3 days
2024-07-30,3 LOWELL AVENUE,TORONTO E08,ONTARIO,M1M3M7,ERROL MOTT,RIGHT AT HOME REALTY,"$1,030,000",43.7293548,79.231612,3 days
2024-07-30,708 - 630 GREENWOOD AVENUE,TORONTO E01,ONTARIO,M4J0A8,PIERRE CARAPETIAN,KELLER WILLIAMS REFERRED URBAN PIERRE CARAPETIAN GROUP REALTY,"$549,000",43.6810522,79.3323986,3 days
2024-07-30,35 BLACKTOFT DRIVE,TORONTO E11,ONTARIO,M1B2M7,FILONA MELVIN THUSHYANTHI,HOMELIFE GALAXY REAL ESTATE LTD.,"$799,000",43.8052469,79.1750536,3 days
2024-07-30,5 - 88 MUNRO STREET,TORONTO E01,ONTARIO,M4M2S9,ALEXANDRA COTE,REAL BROKER ONTARIO LTD.,"$859,900",43.661629,79.3530242,3 days
2024-07-30,615 - 650 SHEPPARD AVENUE E,TORONTO C15,ONTARIO,M2K1B7,HOOMAN BANDARCHI,RE/MAX REALTRON REALTY INC.,"$555,000",43.7685375,79.381313,3 days
2024-07-30,1602 - 10 CAPREOL COURT,TORONTO C01,ONTARIO,M5V4B3,KENNETH KIN HUNG SHIU,HC REALTY GROUP INC.,"$850,000",43.6405508,79.3960788,3 days
2024-07-30,604 - 560 FRONT STREET W,TORONTO C01,ONTARIO,M5V1C1,KEVIN SOMMERVILLE,BRAD J. LAMB REALTY 2016 INC.,"$588,800",43.641295,79.4000147,3 days
2024-07-30,807 - 15 GREENVIEW AVENUE,TORONTO C07,ONTARIO,M2M4M7,RAY HOU,SMART SOLD REALTY,"$699,000",43.7797129,79.418427,3 days
2024-07-30,303 - 85 EAST LIBERTY STREET,TORONTO C01,ONTARIO,M6K3R4,JUSTIN JEFFERY,KELLER WILLIAMS REAL ESTATE ASSOCIATES,"$615,000",43.6381606,79.4155672,3 days
2024-07-30,1915 - 251 JARVIS STREET,TORONTO C08,ONTARIO,M5B0C3,TEHREEM KAMAL,ROYAL LEPAGE REAL ESTATE SERVICES LTD.,"$589,000",43.6573767,79.3744501,3 days
2024-07-30,34 TRUEMAN AVENUE,TORONTO W08,ONTARIO,M8Z5A2,KATHY VUKOBRAT,EXP REALTY,"$1,335,000",43.6241354,79.5244174,10 minutes
2024-07-30,311 - 300 MANITOBA STREET,TORONTO W06,ONTARIO,M8Y4G6,DAVID PEKAR,RE/MAX REALTRON REALTY INC.,"$1,380,000",43.6241543,79.4898188,2 hours
2024-07-30,34 TRUEMAN AVENUE,ETOBICOKE,ONTARIO,M8Z5A2,ROBERT PREECE,EXP REALTY,"$1,335,000",43.62441686,79.5239294,3 hours
2024-07-30,6708 - 1 BLOOR STREET E,TORONTO C08,ONTARIO,M4W0A8,LADAN KATOUZIAN,RE/MAX ULTIMATE REALTY INC.,"$1,488,888",43.6701587,79.3862462,3 hours
2024-07-30,29 SCARBOROUGH HEIGHTS BOULEVARD,TORONTO E08,ONTARIO,M1M2V3,NICOLE DIGALAKIS,RE/MAX ALL-STARS REALTY INC.,"$1,348,000",43.722049,79.2274525,4 hours
2024-07-30,ADDRESS NOT AVAILABLE,NOT AVAILABLE,NOT AVAILABLE,NOT AVAILABLE,GRACE NG,SINCERE REALTY INC.,"$1,388,000",NOT AVAILABLE,NOT AVAILABLE,4 hours
2024-07-30,60 ULSTER STREET,TORONTO C01,ONTARIO,M5S1E5,QITING HUANG,SKYLAND REALTY INC.,"$1,488,000",43.6604092,79.4069273,9 hours
2024-07-30,70 FORT YORK BOULEVARD,TORONTO C01,ONTARIO,M5V4A6,BAHAREH BAHARIAN,SUTTON GROUP-ADMIRAL REALTY INC.,"$1,499,000",43.6400453,79.3965799,2 days
2024-07-30,4107 - 82 DALHOUSIE STREET,TORONTO C08,ONTARIO,M5B0C5,KARIM KABANI,CENTURY 21 LEADING EDGE REALTY INC.,"$1,350,000",43.6557378,79.3764533,2 days
2024-07-30,44 EDGECROFT ROAD,TORONTO W07,ONTARIO,M8Z2B8,VLADIMIR TRKULJA,CENTURY 21 REGAL REALTY INC.,"$1,449,000",43.6294453,79.5094384,2 days
2024-07-30,2802 - 3 REAN DRIVE,TORONTO C15,ONTARIO,M2K1H1,FARHANG FRANK ZADAFSHAR,ROYAL LEPAGE TERREQUITY REALTY,"$1,388,888",43.7654154,79.3829416,2 days
2024-07-30,123 LAKE CRESCENT,TORONTO W06,ONTARIO,M8V1W2,PHUONG NGUYEN,RE/MAX EXPERTS,"$1,418,000",43.6057428,79.4979766,3 days
2024-07-30,54 TOWER DRIVE,TORONTO E04,ONTARIO,M1R3N9,JAMIE DEMPSTER,RE/MAX HALLMARK REALTY LTD.,"$1,379,000",43.7472602,79.2999656,3 days
2024-07-30,32 COADY AVENUE,TORONTO E01,ONTARIO,M4M2Y8,ANNE J O'NEILL,ROYAL LEPAGE REAL ESTATE SERVICES LTD.,"$1,399,000",43.6633821,79.3347128,3 days
2024-07-30,61 MANORGLEN CRESCENT,TORONTO E07,ONTARIO,M1S1W3,FLORA QU,NU STREAM REALTY (TORONTO) INC.,"$1,349,000",43.7797248,79.2708774,3 days
2024-07-30,58 PALMERSTON AVENUE,TORONTO C01,ONTARIO,M6J2J1,PAUL S. DESIMONE,BOSLEY REAL ESTATE LTD.,"$1,349,000",43.649138,79.4076024,3 days
2024-07-30,102 - 250 ERSKINE AVENUE,TORONTO C10,ONTARIO,M4P1Z4,SUSAN M. KREVER,CHESTNUT PARK REAL ESTATE LIMITED,"$1,499,000",43.7133643,79.3889836,3 days
2024-07-30,239 BURNHAMTHORPE ROAD,TORONTO W08,ONTARIO,M9B1Z2,SIMRAN JEET SINGH RIAR,CITYSCAPE REAL ESTATE LTD.,"$1,449,000",43.6506289,79.5421224,3 days
2024-07-30,223 EPSOM DOWNS DRIVE,TORONTO W05,ONTARIO,M3M1T3,HEATHER AMANDA KRZEWSKI,CENTURY 21 TITANS REALTY INC.,"$1,388,000",43.7231605,79.5009788,3 days
2024-07-30,167 AUGUST AVENUE,TORONTO E06,ONTARIO,M1L3N3,MUSKA WAHEED,RE/MAX ACE REALTY INC.,"$1,499,999",43.6969485,79.2827166,3 days
2024-07-30,244 ROSEMOUNT AVENUE,TORONTO W03,ONTARIO,M6H2N3,RALPH FOX,FOX MARIN ASSOCIATES LTD.,"$1,495,000",43.6754363,79.4471635,3 days
2024-07-30,37 COTMAN CRESCENT,TORONTO W08,ONTARIO,M9B3A4,CHRIS GAWRYS,GOWEST REALTY LTD.,"$1,499,800",43.6658468,79.5611925,3 days
2024-07-30,37 COTMAN CRESCENT,TORONTO,ONTARIO,M9B3A4,CHRIS GAWRYS,"GOWEST REALTY LTD., BROKERAGE","$1,499,800",43.66581722,79.56118577,4 days
2024-07-30,G - 5G BRUSSELS STREET,TORONTO W07,ONTARIO,M8Y1H2,JUDY SWITZER,SUTTON GROUP OLD MILL REALTY INC.,"$1,450,000",43.6266607,79.4912396,4 days
2024-07-30,11 BRAYWIN DRIVE,TORONTO W09,ONTARIO,M9P2N9,LARYSSA PALIN,ROYAL LEPAGE YOUR COMMUNITY REALTY,"$1,359,900",43.700109,79.5359752,4 days
2024-07-30,501 - 10 PRUE AVENUE,TORONTO C04,ONTARIO,M6B1R4,JACK H. SAMUEL,HARVEY KALLES REAL ESTATE LTD.,"$1,395,000",43.7097765,79.4278056,4 days
2024-07-30,62 RAINIER SQUARE,TORONTO E05,ONTARIO,M1T2Z9,SANDY LIU,CENTURY 21 ATRIA REALTY INC.,"$1,368,000",43.796896,79.303137,4 days
2024-07-30,2 - 230 GERRARD STREET E,TORONTO C08,ONTARIO,M5A2E8,JENNIFER ANNE GREENBERG,ROYAL LEPAGE SIGNATURE REALTY,"$1,349,000",43.6618169,79.3703224,4 days
2024-07-30,54 RAMBLEWOOD DRIVE,TORONTO E10,ONTARIO,M1C3E1,ALDO TINO UDOVICIC,RE/MAX CROSSROADS REALTY INC.,"$1,500,000",43.7843995,79.1612403,4 days
2024-07-30,1 CASTLE HILL DRIVE,TORONTO E05,ONTARIO,M1T2Y2,FRANK POLSINELLO,RE/MAX HALLMARK POLSINELLO GROUP REALTY,"$1,378,000",43.7927271,79.2997499,4 days
2024-07-30,70 EXBURY ROAD,TORONTO W05,ONTARIO,M3M1R1,JEFF OULAHEN,OULAHEN TEAM REALTY INC.,"$1,375,000",43.732075,79.4986602,4 days
2024-07-30,39 HEATHFIELD DRIVE,TORONTO E08,ONTARIO,M1M3A9,CAROL ELIZABETH FODERICK,KELLER WILLIAMS ADVANTAGE REALTY,"$1,399,999",43.7381972,79.2107923,4 days
2024-07-30,8 SIR RAYMOND DRIVE,TORONTO E08,ONTARIO,M1E1C2,MICHELLE BISSETT-RYU,IPRO REALTY LTD.,"$1,348,000",43.7408641,79.2066519,4 days
2024-07-30,14 GREYSTONE COURT,TORONTO W06,ONTARIO,M8V4A5,VANESSA BAGLIERI,RE/MAX REALTRON TPS REALTY,"$1,499,000",43.6205266,79.4860559,4 days
2024-07-30,71 TENTH STREET,TORONTO W06,ONTARIO,M8V3E9,SARAH EBY,SUTTON GROUP OLD MILL REALTY INC.,"$1,399,000",43.5981628,79.5076332,4 days
2024-07-30,201 - 365 BEECH AVENUE,TORONTO E02,ONTARIO,M4E0C2,AMANDA XIE,AGENTONDUTY INC.,"$1,350,000",43.6800422,79.2904733,4 days
2024-07-30,111 - 215 THE DONWAY WEST,TORONTO C13,ONTARIO,M3B3P5,HANNA J. ESKER,FOREST HILL REAL ESTATE INC.,"$1,359,000",43.7380697,79.3465761,4 days
2024-07-30,179 SORAUREN AVENUE,TORONTO W01,ONTARIO,M6R2E7,TARALYN ELIZABETH FODOR,BOSLEY REAL ESTATE LTD.,"$1,449,000",43.6452783,79.4428421,5 days
2024-07-30,183 EDMONTON DRIVE,TORONTO C15,ONTARIO,M2J3X4,TIAN GAO,REAL ONE REALTY INC.,"$1,438,000",43.7905408,79.340665,5 days
2024-07-30,35 PARK HILL ROAD,TORONTO C04,ONTARIO,M6C3M8,SAMANTHA SERVELLO,YOUR HOME SOLD GUARANTEED REALTY INTERCITY PLUS INC.,"$1,399,999",43.7000797,79.437685,5 days
2024-07-30,19 HARJOLYN DRIVE,TORONTO W08,ONTARIO,M9B3T8,IRENE KAUSHANSKY,KELLER WILLIAMS PORTFOLIO REALTY,"$1,447,000",43.6339791,79.5467879,5 days
2024-07-30,16 GLENDINNING AVENUE,TORONTO E05,ONTARIO,M1W3G2,BRENDA XIAODONG LI,RE/MAX IMPERIAL REALTY INC.,"$1,488,000",43.8122557,79.3332132,5 days
2024-07-30,41 TERRAVIEW BOULEVARD S,TORONTO E04,ONTARIO,M1R4L8,CHARLES D. FERREIRA,HOMELIFE REGIONAL REALTY LTD.,"$1,399,000",43.7650688,79.3148511,5 days
2024-07-30,164 CHAPMAN ROAD,TORONTO W09,ONTARIO,M9P1G4,MANI TABATABAI,KINGSWAY REAL ESTATE,"$1,300,000",43.6880996,79.5276971,5 days
2024-07-30,221 LAWLOR AVENUE,TORONTO E02,ONTARIO,M4E3L9,JULIE HUGHES,KELLER WILLIAMS ADVANTAGE REALTY,"$1,469,000",43.6859394,79.2904544,5 days
2024-07-30,127 HIGHFIELD ROAD,TORONTO E01,ONTARIO,M4L2T9,CHONG WANG,HOMELIFE LANDMARK REALTY INC.,"$1,399,000",43.670746,79.324485,5 days
2024-07-30,388 YONGE STREET,"UNIT #7116
TORONTO",ONTARIO,M5B0A4,HASSAN JAMIL,KELLER WILLIAMS COMPLETE REALTY,"$1,449,900",43.65958,79.382763,5 days
2024-07-30,51 DENVALE ROAD,TORONTO E03,ONTARIO,M4B3B3,SUSAN GUCCI,ROYAL LEPAGE SIGNATURE SUSAN GUCCI REALTY,"$1,375,000",43.7068063,79.3184084,5 days
2024-07-30,90 DEANVAR AVENUE,TORONTO E04,ONTARIO,M1R2N3,MARUN AHADI,HOMELIFE/MIRACLE REALTY LTD,"$1,349,000",43.7476269,79.3073125,5 days
2024-07-30,12 GREENDOWNS DRIVE,TORONTO E08,ONTARIO,M1M2G7,TONY MAURO,RE/MAX HALLMARK REALTY LTD.,"$1,325,000",43.7363147,79.2221764,5 days
2024-07-30,119 CURZON STREET,TORONTO E01,ONTARIO,M4M3B3,MOUSA HUSSEINI,IPRO REALTY LTD.,"$1,399,000",43.6661786,79.3325104,6 days
2024-07-30,903 - 410 QUEENS QUAY W,TORONTO C01,ONTARIO,M5V3T1,NATALYA TELENCHENKO,FOREST HILL REAL ESTATE INC.,"$1,398,000",43.6380611,79.3914588,6 days
2024-07-30,2 MICHIGAN DRIVE,TORONTO C14,ONTARIO,M2M3J1,SHARON SOLTANIAN,SOLTANIAN REAL ESTATE INC.,"$1,487,000",43.7976217,79.4070764,6 days
2024-07-30,344 WELLESLEY STREET E,TORONTO C08,ONTARIO,M4X1H3,RYAN CHRISTOPHER WYKES,REAL BROKER ONTARIO LTD.,"$1,500,000",43.6687392,79.367512,6 days
2024-07-30,12 CHATTERTON BOULEVARD,TORONTO E08,ONTARIO,M1M2G2,STEPHANIE BINNS,HOMELIFE SUPERSTARS REAL ESTATE LIMITED,"$1,399,000",43.7359209,79.224359,6 days
2024-07-30,59 BERKELEY STREET,TORONTO C08,ONTARIO,M5A2W5,ANDREW DOUMONT,KELLER WILLIAMS REFERRED URBAN REALTY,"$1,429,000",43.6524984,79.3643743,6 days
2024-07-30,26 PAULTIEL DRIVE,TORONTO C14,ONTARIO,M2M3P3,SANDY LIU,CENTURY 21 ATRIA REALTY INC.,"$1,300,000",43.7983884,79.399201,6 days
2024-07-30,2602 - 1080 BAY STREET,TORONTO C01,ONTARIO,M5S0A5,JASON JEONG,ROYAL LEPAGE NEW CONCEPT,"$1,459,900",43.6669805,79.3888889,6 days
2024-07-30,134 NORTHCOTE AVENUE,TORONTO C01,ONTARIO,M6J3K5,CHRISTIAN KENNERNEY,ROYAL LEPAGE CONNECT REALTY,"$1,499,800",43.6461251,79.4275484,6 days
2024-07-30,36 HARTSDALE DRIVE,TORONTO W09,ONTARIO,M9R2S5,JOHN TOKATLIDIS,ROYAL LEPAGE ELITE REALTY,"$1,329,000",43.684755,79.5438613,6 days
2024-07-30,877 LOGAN AVENUE,TORONTO E01,ONTARIO,M4K3E2,MIAO JUAN HE,HOMELIFE LANDMARK REALTY INC.,"$1,399,000",43.6774544,79.3493125,6 days
2024-07-30,114 LAKE SHORE DRIVE,TORONTO,ONTARIO,M8V2A2,BELLA GARCIA,RIGHT AT HOME REALTY,"$1,499,777",43.595048,79.504336,6 days
2024-07-30,36 LESLIE STREET,TORONTO E01,ONTARIO,M4M3C4,NARGES SIADATI-FINI,MANOR HILL REALTY INC.,"$1,425,000",43.6610054,79.3294427,6 days
2024-07-30,94 EUCLID AVENUE,TORONTO E10,ONTARIO,M1C1J9,ADEEL BHAYANI,OUR NEIGHBOURHOOD REALTY INC.,"$1,450,000",43.7953456,79.1692421,6 days
2024-07-30,286 PALMERSTON AVENUE,TORONTO C01,ONTARIO,M6J2J4,KRIS ZHAO,"T-ONE GROUP REALTY INC.,","$1,499,000",43.6550181,79.4100168,6 days
2024-07-30,339 HARVIE AVENUE,TORONTO W03,ONTARIO,M6E4L4,CARLOS OLIVEIRA FERREIRA,HOMELIFE/CITY HILL REALTY INC.,"$1,399,000",43.6886564,79.4546218,6 days
2024-07-30,7116 - 388 YONGE STREET,TORONTO C01,ONTARIO,M5B0A4,HASSAN JAMIL,KELLER WILLIAMS COMPLETE REALTY,"$1,449,900",43.6590215,79.3831153,6 days
2024-07-30,503 - 33 HARBOUR SQUARE,TORONTO C01,ONTARIO,M5J2G2,TYLER COHEN,RE/MAX REALTRON BARRY COHEN HOMES INC.,"$1,499,000",43.639944,79.3772596,7 days
2024-07-30,5708 - 386 YONGE STREET,TORONTO C01,ONTARIO,M5B0A5,MIN CATHERINE SUN,GOLDEN LIFE REALTY LTD.,"$1,399,880",43.6596706,79.3825726,7 days
2024-07-30,2608 - 90 PARK LAWN ROAD,TORONTO W06,ONTARIO,M8Y0B6,MICHELLE ZHAO,RE/MAX EXCEL REALTY LTD.,"$1,380,000",43.6243974,79.4852196,7 days
2024-07-30,29 VANDERBRENT CRESCENT,TORONTO W09,ONTARIO,M9R3W9,MIKE ALI,RE/MAX WEST REALTY INC.,"$1,349,900",43.6857084,79.5692193,7 days
2024-07-30,52 HAMPTONBROOK DRIVE,TORONTO W09,ONTARIO,M9P1A1,DAN STEVENS,MILBORNE REAL ESTATE INC.,"$1,500,000",43.6813297,79.5380415,7 days
2024-07-30,4509 - 10 NAVY WHARF COURT,TORONTO C01,ONTARIO,M5V3V2,MUNIRA RAVJI,ROYAL LEPAGE SIGNATURE REALTY,"$1,349,999",43.6404514,79.3919349,7 days
2024-07-30,365 HOWLAND AVENUE,TORONTO C02,ONTARIO,M5R3C1,DANIEL PUSTIL,SOTHEBY'S INTERNATIONAL REALTY CANADA,"$1,499,000",43.6762655,79.4129012,7 days
2024-07-30,1903 - 35 HAYDEN STREET,TORONTO C08,ONTARIO,M4Y3C3,MICHAEL VOLPE,KELLER WILLIAMS REALTY CENTRES,"$1,400,000",43.6696226,79.3847443,7 days
2024-07-30,79B ULSTER STREET,TORONTO C01,ONTARIO,M5S1E7,SAVANNAH WENG,RE/MAX DASH REALTY,"$1,399,000",43.6600135,79.4075351,7 days
2024-07-30,46 COXWELL AVENUE,TORONTO E01,ONTARIO,M4L3A7,SOPHIE ALEGRA GITERMAN,EASY LIST REALTY LTD.,"$1,399,999",43.6678142,79.3174373,7 days
2024-07-30,88 CHERRYSTONE DRIVE,TORONTO C15,ONTARIO,M2H1S1,BILL THOM,RE/MAX REALTRON REALTY INC.,"$1,485,000",43.8068928,79.3574696,8 days
2024-07-30,79 HUNTSMILL BOULEVARD,TORONTO E05,ONTARIO,M1W2Z8,JAMES PARK,RE/MAX CROSSROADS REALTY INC.,"$1,300,000",43.8077949,79.3258371,8 days
2024-07-30,266 ONTARIO STREET,TORONTO C08,ONTARIO,M5A2V5,SHELLEY KOLLINS,RIGHT AT HOME REALTY,"$1,449,000",43.6582604,79.3685027,9 days
2024-07-30,140 NORTHCLIFFE BOULEVARD,TORONTO C03,ONTARIO,M6E3K6,DARIO RUBERTO,NEW ERA REAL ESTATE,"$1,450,000",43.6799084,79.4416949,9 days
2024-07-30,61 RENAULT CRESCENT,TORONTO W09,ONTARIO,M9P1J4,PAUL ZAPPONE-CAPUTO,SUTTON GROUP-SECURITY REAL ESTATE INC.,"$1,399,000",43.6859931,79.5265552,9 days
2024-07-30,233 DAVID DUNLAP CIRCLE E,TORONTO C13,ONTARIO,M3C4B9,REZA SADRKHANLOU,PROPERTY.CA INC.,"$1,399,000",43.7297819,79.3340907,9 days
2024-07-30,55 DELWOOD DRIVE,TORONTO E04,ONTARIO,M1L2S8,STEPHEN TRUONG,ROYAL LEPAGE SIGNATURE REALTY,"$1,438,000",43.7156602,79.297261,9 days
2024-07-30,805 - 169 JOHN STREET,TORONTO C01,ONTARIO,M5T1X3,ZACH LAHARTINGER,PROPERTY.CA INC.,"$1,425,000",43.6505584,79.3909672,9 days
2024-07-30,3314 - 35 MERCER STREET,TORONTO C01,ONTARIO,M5V0V1,MARIO SIMECKI,CENTURY 21 BEST SELLERS LTD.,"$1,499,999",43.6456433,79.3905785,10 days
2024-07-30,89 CONCORD AVENUE,TORONTO C01,ONTARIO,M6H2P2,SALLY SHAROYAN,RE/MAX EXCEL REALTY LTD.,"$1,300,000",43.6571633,79.4248789,10 days
2024-07-30,1737 DUNDAS STREET E,TORONTO E01,ONTARIO,M4L1L9,NAVPREET BHOGAL,RE/MAX REAL ESTATE CENTRE INC.,"$1,345,999",43.6675177,79.3238974,10 days
2024-07-30,3203 - 95 MCMAHON DRIVE S,TORONTO C15,ONTARIO,M2K0H2,JENNY LEE,HOMELIFE LANDMARK REALTY INC.,"$1,369,000",43.7667106,79.3723553,10 days
2024-07-30,7K BRUSSELS STREET,TORONTO W07,ONTARIO,M8Y1H2,ELIAS ASSAL,ROYAL LEPAGE TERREQUITY REALTY,"$1,385,000",43.6264838,79.4915083,10 days
2024-07-30,699 DUPONT STREET,TORONTO W02,ONTARIO,M6G1Z5,SHANNON WALKER,BSPOKE REALTY INC.,"$1,349,000",43.671188,79.4227891,11 days
2024-07-30,95 PORT ROYAL TRAIL,TORONTO E07,ONTARIO,M1V2H2,PETER LIN,RE/MAX ATRIUM HOME REALTY,"$1,329,900",43.8168651,79.2849143,11 days
2024-07-30,745 CRAVEN ROAD,TORONTO E01,ONTARIO,M4L2Z7,HUGO ERNESTO CEREN,PSR,"$1,360,000",43.6761153,79.3225763,11 days
2024-07-30,12 PLAINS ROAD,TORONTO E03,ONTARIO,M4J2R1,DEAN DA SILVA,RE/MAX HALLMARK REALTY LTD.,"$1,399,000",43.6934782,79.3411509,11 days
2024-07-30,579 RUSTIC ROAD,TORONTO W04,ONTARIO,M6C1Y2,JOSE R. PEREIRA,RE/MAX WEST REALTY INC.,"$1,349,000",43.7194738,79.4740748,11 days
2024-07-30,72 LUNNESS ROAD,TORONTO W06,ONTARIO,M8W4M6,CORRIE HARDING-KEIZS,KELLER WILLIAMS REAL ESTATE ASSOCIATES,"$1,450,000",43.6070334,79.5465747,11 days
2024-07-30,156 HILLSIDE AVENUE,TORONTO W06,ONTARIO,M8V1T4,TOM COLEMAN,CENTURY 21 PERCY FULTON LTD.,"$1,300,000",43.6097309,79.4984509,11 days
2024-07-30,3028 WESTON ROAD,TORONTO W05,ONTARIO,M9M2S7,THO THANH LE,IPRO REALTY LTD.,"$1,499,000",43.7294096,79.5366178,11 days
2024-07-30,1011 CRAVEN ROAD,TORONTO E01,ONTARIO,M4J4V7,NICOLA JANE ST. JOHN,BOSLEY REAL ESTATE LTD.,"$1,398,000",43.6803668,79.3243529,12 days
2024-07-30,16-1 - 1555 MIDLAND AVENUE,TORONTO E09,ONTARIO,M1P0A1,IRA KALEMI,ROYAL LEPAGE SIGNATURE REALTY,"$1,329,000",43.7546922,79.26597,12 days
2024-07-30,462&464 SAMMON AVENUE,TORONTO E03,ONTARIO,M4J2B2,DYLAN PROVENCHER,KELLER WILLIAMS ADVANTAGE REALTY,"$1,349,000",43.6880392,79.3298903,12 days
2024-07-30,546 DUFFERIN STREET,TORONTO C01,ONTARIO,M6K2A7,ROD ORELLANA,RED APPLE REAL ESTATE INC.,"$1,499,000",43.6473139,79.4307744,12 days
2024-07-30,44 HESKETH COURT,TORONTO C13,ONTARIO,M4A1M6,EVA HAASE,ROYAL LEPAGE SIGNATURE REALTY,"$1,399,000",43.7277066,79.3077639,12 days
2024-07-30,PH 01 - 335 LONSDALE ROAD,TORONTO C03,ONTARIO,M5P1R4,YUE HE,SUTTON GROUP REALTY SYSTEMS INC.,"$1,495,000",43.688229,79.4135346,12 days
2024-07-30,57 REGENT ROAD,TORONTO W05,ONTARIO,M3K1G8,LINO ACHILLE ARCI,RE/MAX HALLMARK REALTY LTD.,"$1,399,000",43.7324159,79.4620651,12 days
2024-07-30,310 PHARMACY AVENUE,TORONTO E04,ONTARIO,M1L3G3,NISHAN SINGH,HOMELIFE REAL ESTATE CENTRE INC.,"$1,399,000",43.7021447,79.2878221,12 days
2024-07-30,15 MERCER STREET,TORONTO C01,ONTARIO,M5V1H2,TONY TALEBZADEH,WORLD CLASS REALTY POINT,"$1,339,000",43.6455943,79.3904419,12 days
2024-07-30,22 DE MARCO BOULEVARD,TORONTO W04,ONTARIO,M6L2W1,SAM ALLAN MCDADI,SAM MCDADI REAL ESTATE INC.,"$1,488,000",43.7070544,79.4910477,13 days
2024-07-30,564 HORNER AVENUE,TORONTO W06,ONTARIO,M8W2C4,TENZIN KHEDUP,CENTURY 21 PEOPLE'S CHOICE REALTY INC.,"$1,490,000",43.600917,79.5500839,13 days
2024-07-30,11 BRYNSTON ROAD,TORONTO W08,ONTARIO,M9B3C5,ROBERT B. NIMMO,RE/MAX PROFESSIONALS INC.,"$1,498,000",43.6700312,79.5568241,13 days
2024-07-30,5 WADSWORTH BOULEVARD,TORONTO W04,ONTARIO,M9N2G3,ANTHONY OTTAVINO,RE/MAX PREMIER INC.,"$1,389,000",43.7027822,79.5137741,13 days
2024-07-30,54 PARK STREET,TORONTO E06,ONTARIO,M1N2N7,MAINUL HASSAN SYED,REALTY 21 INC.,"$1,399,000",43.7106842,79.2552243,13 days
2024-07-30,6 JOSEPH SALSBERG LANE,TORONTO C01,ONTARIO,M6J3W8,TOM CLARKE STOREY,ROYAL LEPAGE SIGNATURE REALTY,"$1,325,000",43.6442574,79.4042745,13 days
2024-07-30,389 DAVISVILLE AVENUE,TORONTO C10,ONTARIO,M4S1H4,SANDRA YOU CHIN,SUTTON GROUP-ADMIRAL REALTY INC.,"$1,488,000",43.7012925,79.3814969,13 days
2024-07-30,194 GAMMA STREET,TORONTO W06,ONTARIO,M8W4G5,KURTIS HORVAT,REALTY ONE GROUP FLAGSHIP,"$1,479,000",43.6061575,79.5387642,13 days
2024-07-30,808 - 160 KINGSWAY CRESCENT,TORONTO W08,ONTARIO,M8X2S4,ZEBA KAZMI,HERSH REALTY GROUP INC.,"$1,450,900",43.6617413,79.5071132,13 days
2024-07-30,205 - 35 BOARDWALK DRIVE,TORONTO E02,ONTARIO,M4L3Z8,DESMOND A. BROWN,RE/MAX HALLMARK REALTY LTD.,"$1,399,000",43.6644056,79.3083366,13 days
2024-07-30,1503 - 20 EDWARD STREET,TORONTO C01,ONTARIO,M5G0C5,ZHIYU XIE,JDL REALTY INC.,"$1,489,000",43.6569939,79.3821206,13 days
2024-07-30,19 YORKVIEW DRIVE,TORONTO W07,ONTARIO,M8Z2G1,ED ALLAN,ROYAL LEPAGE WEST REALTY GROUP LTD.,"$1,395,000",43.6306015,79.5065924,13 days
2024-07-30,5 LISCOMBE ROAD,TORONTO W04,ONTARIO,M6L2Z9,FRANK FALLICO,HARVEY KALLES REAL ESTATE LTD.,"$1,328,000",43.7129114,79.4991461,13 days
2024-07-30,42 LINTON AVENUE,TORONTO E06,ONTARIO,M1N1W6,HICHAM S FARHAT,CENTURY 21 LEADING EDGE REALTY INC.,"$1,439,000",43.6866706,79.2844126,13 days
2024-07-30,12 LAMB AVENUE,TORONTO E01,ONTARIO,M4J4M3,PERRY WAISGLASS,ROYAL LEPAGE YOUR COMMUNITY REALTY,"$1,349,000",43.6789108,79.3282478,14 days
2024-07-30,79 ELMFIELD CRESCENT,TORONTO E05,ONTARIO,M1V2Y5,MONA LEUNG,CENTURY 21 KING'S QUAY REAL ESTATE INC.,"$1,450,000",43.8196999,79.309478,14 days
2024-07-30,1004 - 480 FRONT STREET W,TORONTO C01,ONTARIO,M5V0V6,RAED NUSAIBAH,SOTHEBY'S INTERNATIONAL REALTY CANADA,"$1,379,000",43.6423804,79.3968586,14 days
2024-07-30,257 OTONABEE AVENUE,TORONTO C14,ONTARIO,M2M2S9,BELLA LEE,FOREST HILL REAL ESTATE INC.,"$1,488,000",43.7977638,79.4042334,14 days
2024-07-30,637 - 55 STEWART STREET,TORONTO C01,ONTARIO,M5V2V1,CHRISTOPHER ANDREW BIBBY,RE/MAX HALLMARK BIBBY GROUP REALTY,"$1,335,000",43.6432934,79.4013564,14 days
2024-07-30,145 CAMERON AVENUE,TORONTO C07,ONTARIO,M2N1E4,RONIT BARZILAY,HARVEY KALLES REAL ESTATE LTD.,"$1,399,000",43.7555984,79.4170056,14 days
2024-07-30,304 DONLANDS AVENUE,TORONTO E03,ONTARIO,M4J3R6,MAQSOOD AHMAD,CENTURY 21 PARKLAND LTD.,"$1,429,000",43.6914368,79.3420575,14 days
2024-07-30,113 DALI CRESCENT,TORONTO E11,ONTARIO,M1B5Y3,LORI SU,RE/MAX IMPERIAL REALTY INC.,"$1,420,000",43.8040651,79.1808031,14 days
2024-07-30,27 NEELANDS CRESCENT,TORONTO E09,ONTARIO,M1E0B6,SWAPNA CHARI,HOMELIFE GALAXY REAL ESTATE LTD.,"$1,500,000",43.7919465,79.2050411,15 days
2024-07-30,67 GROVE PARK CRESCENT,TORONTO C15,ONTARIO,M2J2C7,YING ZHOU,BAY STREET GROUP INC.,"$1,498,000",43.7783557,79.3597986,15 days
2024-07-30,65 CINRICKBAR DRIVE,TORONTO W10,ONTARIO,M9W6X3,DARLINGTON EDOWEN,RIGHT AT HOME REALTY,"$1,450,000",43.7201164,79.6157728,16 days
2024-07-30,304 - 5444 YONGE STREET,TORONTO C07,ONTARIO,M2N6J4,SAM ALLAN MCDADI,SAM MCDADI REAL ESTATE INC.,"$1,500,000",43.7764244,79.4160282,16 days
2024-07-30,167 QUEENSDALE AVENUE,TORONTO E03,ONTARIO,M4J1Y5,BETTY DENG,HOMELIFE LANDMARK REALTY INC.,"$1,349,000",43.6877009,79.3264151,16 days
2024-07-30,4 YEOMANS ROAD,TORONTO C06,ONTARIO,M3H3J4,RENETA HADJIANGUELOVA,"INTERNATIONAL REALTY FIRM, INC.","$1,500,000",43.7462354,79.4409322,16 days
2024-07-30,10 AIKENHEAD ROAD,TORONTO W09,ONTARIO,M9R2Z2,DARREN JOHN SCOPIS,KELLER WILLIAMS CO-ELEVATION REALTY,"$1,498,888",43.6905172,79.5449231,16 days
2024-07-30,196 MEADOWVALE ROAD,TORONTO E10,ONTARIO,M1C1S4,SOBI THARMALINGAM,ROYAL LEPAGE VISION REALTY,"$1,500,000",43.7858188,79.1613118,16 days
2024-07-30,241 BOSTON AVENUE,TORONTO E01,ONTARIO,M4M2V1,KENNETH B MCDONALD,RE/MAX HALLMARK REALTY LTD.,"$1,475,000",43.6658894,79.3404534,16 days
2024-07-30,57 WELLESWORTH DRIVE,TORONTO W08,ONTARIO,M9C4R2,DELIP CHOOK,ROYAL LEPAGE WEST REALTY GROUP LTD.,"$1,350,000",43.6660298,79.5792039,16 days
2024-07-30,308 - 160 KINGSWAY CRESCENT,TORONTO W08,ONTARIO,M8X2S4,ZEBA KAZMI,HERSH REALTY GROUP INC.,"$1,314,900",43.6617413,79.5071132,16 days
2024-07-30,13 ROLYAT STREET,TORONTO,ONTARIO,M6J1S5,GRACE SOARES,REMAX WEST REALTY INC,"$1,349,000",43.64857216,79.42136876,16 days
2024-07-30,13 ROLYAT STREET,TORONTO C01,ONTARIO,M6J1S5,GRACE SOARES,RE/MAX WEST REALTY INC.,"$1,349,000",43.6485706,79.4213703,16 days
2024-07-30,520 - 1 BLOOR STREET,TORONTO C08,ONTARIO,M4W0A8,DARYL KING,RE/MAX HALLMARK REALTY LTD.,"$1,490,000",43.6701587,79.3862462,17 days
2024-07-30,176 HASTINGS AVENUE,TORONTO E01,ONTARIO,M4L2L3,STEPHANIE NAUSE,KELLER WILLIAMS REFERRED URBAN REALTY,"$1,350,000",43.6683716,79.3314253,17 days
2024-07-30,8 VANDERBRENT CRESCENT,TORONTO W09,ONTARIO,M9R3W8,SHAWN SAINI,PROSENSE REALTY,"$1,390,500",43.6867033,79.5698849,17 days
2024-07-30,307 - 25 MCMAHON DRIVE,TORONTO C15,ONTARIO,M2K0J2,JENNY DONG,PROMPTON REAL ESTATE SERVICES CORP.,"$1,498,900",43.7663,79.37408,17 days
2024-07-30,3207 - 27 MCMAHON DRIVE,TORONTO C15,ONTARIO,M2K0J2,JENNY DONG,PROMPTON REAL ESTATE SERVICES CORP.,"$1,418,000",43.76633,79.37366,17 days
2024-07-30,46 CLIFTON AVENUE,TORONTO C06,ONTARIO,M3H4L1,HOI THI NGUYEN,HOMELIFE/MIRACLE REALTY LTD,"$1,450,000",43.7612448,79.4529256,17 days
2024-07-30,17 CRESTRIDGE HEIGHTS ROAD,TORONTO W09,ONTARIO,M9P1A3,MARTIN ECKERT,RE/MAX PROFESSIONALS INC.,"$1,399,900",43.6830626,79.5294302,17 days
2024-07-30,93 DENBIGH CRESCENT,TORONTO W05,ONTARIO,M3M2T4,ANNIE TRUONG PHAN,RIGHT AT HOME REALTY,"$1,450,000",43.7369915,79.4884292,18 days
2024-07-30,8 SHIPLEY ROAD,TORONTO W09,ONTARIO,M9R3H8,ANIL RAMLAL,EXP REALTY,"$1,450,000",43.6843337,79.5599182,18 days
2024-07-30,406 - 1 ABERFOYLE CRESCENT,TORONTO W08,ONTARIO,M8X2X8,GIOVANNA JO-ANN FOLINO,SOTHEBY'S INTERNATIONAL REALTY CANADA,"$1,348,000",43.6458046,79.5197835,18 days
2024-07-30,15 SCENIC MILL WAY,TORONTO C12,ONTARIO,M2L1S4,BELLA LEE,FOREST HILL REAL ESTATE INC.,"$1,488,000",43.7501493,79.3807599,18 days
2024-07-30,247 BERRY ROAD,TORONTO W07,ONTARIO,M8Y1X8,DOUG WORKMAN,KELLER WILLIAMS ADVANTAGE REALTY,"$1,499,000",43.6346085,79.4994618,18 days
2024-07-30,904 - 840 ST CLAIR AVENUE W,TORONTO C03,ONTARIO,M6C1C1,TORI PHILLIPS,HIRSCH AND ASSOCIATES REAL ESTATE INC.,"$1,399,900",43.6807483,79.431757,18 days
2024-07-30,3806 - 318 RICHMOND STREET W,TORONTO C01,ONTARIO,M5V0B4,RITWIK UBAN,CENTURY 21 LEADING EDGE REALTY INC.,"$1,449,000",43.6489242,79.3921998,18 days
2024-07-30,30 STOCK AVENUE,TORONTO W08,ONTARIO,M8Z5C4,MOHAMMAD BADRUD DOZA,RIGHT AT HOME REALTY,"$1,495,000",43.6229026,79.5264968,18 days
2024-07-30,24 BULWER STREET,TORONTO C01,ONTARIO,M5T2V3,JESSI LO,LANDPOWER REAL ESTATE LTD.,"$1,498,000",43.6499487,79.3946572,19 days
2024-07-30,TH 8 - 525 BALLIOL STREET,TORONTO C10,ONTARIO,M4S1E1,JOSEPHINE LENNON,SOTHEBY'S INTERNATIONAL REALTY CANADA,"$1,399,999",43.7006152,79.3796164,19 days
2024-07-30,9 FURROW LANE,TORONTO W08,ONTARIO,M8Z0A2,SHAWN BEARD,ROYAL LEPAGE SIGNATURE REALTY,"$1,424,900",43.6368767,79.5221713,19 days
2024-07-30,71A NATAL AVENUE,TORONTO E06,ONTARIO,M1N3V5,JULIE ANNE RICHARDSON,BOSLEY REAL ESTATE LTD.,"$1,499,900",43.7119975,79.2533199,19 days
2024-07-30,1 BRIDGETOWN DRIVE,TORONTO W08,ONTARIO,M9C2P3,VINAY LAKHANI,RE/MAX REALTRON REALTY INC.,"$1,488,888",43.6362973,79.5676478,19 days
2024-07-30,2108 - 25 MCMAHON DRIVE,TORONTO C15,ONTARIO,M2K0J2,RANDY TAN,PROMPTON REAL ESTATE SERVICES CORP.,"$1,410,000",43.7663,79.37408,19 days
2024-07-30,3307 - 27 MCMAHON DRIVE,TORONTO C15,ONTARIO,M2K0J2,RANDY TAN,PROMPTON REAL ESTATE SERVICES CORP.,"$1,421,000",43.76633,79.37366,19 days
2024-07-30,1601 - 200 BLOOR STREET W,TORONTO C02,ONTARIO,M5S1T8,CINDY CHEN,HOMELIFE NEW WORLD REALTY INC.,"$1,399,000",43.6686329,79.3953332,19 days
2024-07-30,80 KINGSLAKE ROAD,TORONTO C15,ONTARIO,M2J3E5,ERIC LIU,HOMELIFE LANDMARK REALTY INC.,"$1,399,900",43.7841427,79.3440498,19 days
2024-07-30,390 OAKWOOD AVENUE,TORONTO C03,ONTARIO,M6E2W3,ROBERT GRIN,FINE HOMES REALESTATE INC.,"$1,329,000",43.6878568,79.439259,19 days
2024-07-30,24 RUFFORD ROAD,TORONTO W06,ONTARIO,M8W4V6,MAUREEN TENAGLIA,COLDWELL BANKER SELECT REAL ESTATE,"$1,488,888",43.6075592,79.5554067,19 days
2024-07-30,105 - 3181 BAYVIEW AVENUE,TORONTO C15,ONTARIO,M2K2Y2,JORDAN CHONG,RIGHT AT HOME REALTY,"$1,309,900",43.7857668,79.3916329,20 days
2024-07-30,5905 - 11 WELLESLEY STREET W,TORONTO C01,ONTARIO,M4Y1E8,SARAH LEE,CENTURY 21 LEADING EDGE CONDOSDEAL REALTY,"$1,488,000",43.6645977,79.3852242,20 days
2024-07-30,342B MAPLEHURST AVENUE N,TORONTO C14,ONTARIO,M2N3C6,JING ZHANG,RE/MAX IMPERIAL REALTY INC.,"$1,499,000",43.7660921,79.3952775,20 days
2024-07-30,1287 DAVENPORT ROAD,TORONTO W02,ONTARIO,M6H2H3,CHASE JOSEPH LYE,PROPERTY.CA INC.,"$1,349,000",43.6737841,79.4373638,20 days
2024-07-30,1251 DUFFERIN STREET,TORONTO W02,ONTARIO,M6H4C2,LISSA MARIE CLINE,RE/MAX PROFESSIONALS INC.,"$1,395,000",43.6665634,79.4379171,20 days
2024-07-30,105 CATALINA DRIVE,TORONTO E08,ONTARIO,M1M1K7,NICOLE JEAN-PIERRE,ROYAL LEPAGE SIGNATURE REALTY,"$1,399,000",43.7388923,79.2070414,20 days
2024-07-30,36 - 208 NIAGARA STREET,TORONTO C01,ONTARIO,M6J3W5,NEIL ROBB,RIGHT AT HOME REALTY,"$1,450,000",43.6432892,79.4078747,20 days
2024-07-30,TH 5 - 88 SHEPPARD AVENUE E,TORONTO C14,ONTARIO,M2N6Y2,TINA LI,BAY STREET INTEGRITY REALTY INC.,"$1,318,000",43.7640041,79.407116,20 days
2024-07-30,71 DAGMAR AVENUE,TORONTO E01,ONTARIO,M4M1V9,THOMAS MCBURNEY,EXP REALTY,"$1,399,000",43.6661614,79.3360161,21 days
2024-07-30,3547 ELLESMERE ROAD,TORONTO E10,ONTARIO,M1C1H5,SHAN PERINPANATHAN,ROYAL LEPAGE IGNITE REALTY,"$1,500,000",43.7891321,79.1765537,21 days
2024-07-30,165 CALEDONIA ROAD,TORONTO W03,ONTARIO,M6E4S8,DANIELA DE MEDEIROS,REAL BROKER ONTARIO LTD.,"$1,399,900",43.679881,79.4563175,21 days
2024-07-30,347 LANSDOWNE AVENUE,TORONTO C01,ONTARIO,M6H3Y2,BOB ODANOVIC,RE/MAX ULTIMATE REALTY INC.,"$1,399,900",43.6516727,79.4400649,21 days
2024-07-30,216 - 1100 KINGSTON ROAD,TORONTO E06,ONTARIO,M1N1N4,CHARLES MATTHEW STANLEY,ROYAL LEPAGE SIGNATURE REALTY,"$1,339,900",43.681477,79.2824707,21 days
2024-07-30,25 LESTER AVENUE,TORONTO W04,ONTARIO,M6M1V9,TRUNG LY,RIGHT AT HOME REALTY,"$1,499,900",43.6916948,79.4710863,22 days
2024-07-30,86 HELENDALE AVENUE,TORONTO C03,ONTARIO,M4R1C7,ERROL PAULICPULLE,HARVEY KALLES REAL ESTATE LTD.,"$1,350,000",43.708698,79.4014016,23 days
2024-07-30,91 CHELLIAH COURT,TORONTO E11,ONTARIO,M1B5S1,BADSHA ALAM,REALTY 21 INC.,"$1,449,000",43.7991939,79.1872935,23 days
2024-07-30,33 MORGAN AVENUE,TORONTO W07,ONTARIO,M8Y2Z9,PARAS .P. BHATIA,ROYAL LEPAGE FLOWER CITY REALTY,"$1,300,000",43.6245858,79.5004908,23 days
2024-07-30,76 GOODERHAM DRIVE,TORONTO E04,ONTARIO,M1R3G7,HICHAM S FARHAT,CENTURY 21 LEADING EDGE REALTY INC.,"$1,499,000",43.7494946,79.3048713,24 days
2024-07-30,104 MAPLEWOOD AVENUE,TORONTO C03,ONTARIO,M6C1J5,TONY J. COUTO,RE/MAX WEST REALTY INC.,"$1,499,000",43.686097,79.4254436,24 days
2024-07-30,77 ALAMEDA AVENUE,TORONTO C03,ONTARIO,M6C3W4,NIMA EZAMI,HOMELIFE GOLDEN PALACE REALTY INC.,"$1,390,000",43.6938937,79.4383785,24 days
2024-07-30,241 DERRYDOWN ROAD,TORONTO W05,ONTARIO,M3J1S2,ALEX CHALMIEV,SUTTON GROUP-ADMIRAL REALTY INC.,"$1,498,000",43.7577111,79.5037083,24 days
2024-07-30,7 EARNSCLIFFE ROAD,TORONTO C03,ONTARIO,M6E1J4,SOPHIE ALEGRA GITERMAN,EASY LIST REALTY LTD.,"$1,500,000",43.683337,79.4381806,24 days
2024-07-30,28 SKYRIDGE ROAD,TORONTO E09,ONTARIO,M1E4P1,SIVAKUMAR SHANMUGANATHAN,HOMELIFE/FUTURE REALTY INC.,"$1,399,000",43.7910589,79.2085543,24 days
2024-07-30,2 FEAGAN DRIVE,TORONTO E10,ONTARIO,M1C3B7,MOHAN NADARAJAH,HOMELIFE/FUTURE REALTY INC.,"$1,389,000",43.7789632,79.1505433,25 days
2024-07-30,37 WEST AVENUE,TORONTO E01,ONTARIO,M4M2L7,GEORGE LIN,RE/MAX HALLMARK REALTY LTD.,"$1,475,000",43.6648802,79.3461952,25 days
2024-07-30,111 MACLEAN AVENUE,TORONTO E02,ONTARIO,M4E2Z8,CHARLES MALCOLM FRANCIS,ROYAL LEPAGE YOUR COMMUNITY REALTY,"$1,350,000",43.6717136,79.2906426,25 days
2024-07-30,2609 - 28 FREELAND STREET,TORONTO C08,ONTARIO,M5E0E3,SCOTT SHALLOW,BRAD J. LAMB REALTY 2016 INC.,"$1,398,000",43.6436476,79.3737615,25 days
2024-07-30,53 CHURCHILL AVENUE,TORONTO C01,ONTARIO,M6J2B5,TONI MARTINS,RE/MAX ULTIMATE REALTY INC.,"$1,349,900",43.6513377,79.424817,25 days
2024-07-30,3 SAGAMORE CRESCENT,TORONTO W08,ONTARIO,M9C4G3,ABE SNOBAR,RE/MAX PROFESSIONALS INC.,"$1,399,000",43.6665304,79.5842479,25 days
2024-07-30,LPH19 - 50 DUNFIELD AVENUE,TORONTO C10,ONTARIO,M4S0E4,ROBERT S. GREENBERG,HARVEY KALLES REAL ESTATE LTD.,"$1,349,000",43.7060121,79.3953296,25 days
2024-07-30,346 PARK LAWN ROAD UNIT# 2,TORONTO,ONTARIO,M8Y3K4,ROBERT PIPERNI,EXP REALTY OF CANADA INC,"$1,499,000",43.6391995,79.49476162,25 days
2024-07-30,2 - 346 PARK LAWN ROAD,TORONTO W07,ONTARIO,M8Y3K4,ROBERT PIPERNI,EXP REALTY,"$1,499,000",43.639778,79.4952424,25 days
2024-07-30,105 REGINA AVENUE,TORONTO C04,ONTARIO,M6A1R5,PAUL HATSISAVVAS,CENTURY 21 LEADING EDGE REALTY INC.,"$1,388,000",43.7260261,79.4393499,25 days
2024-07-30,91 MARMION AVENUE,TORONTO C04,ONTARIO,M5M1Y4,JENNIFER ROTHSCHILD,RE/MAX WEST REALTY INC.,"$1,300,000",43.7266121,79.4307254,25 days
2024-07-30,413 DREWRY AVENUE,TORONTO C07,ONTARIO,M2R2K3,DONNA GAO,RE/MAX ALPHA SOLD REALTY,"$1,399,000",43.7826622,79.4366241,25 days
2024-07-30,1297 DAVENPORT ROAD,TORONTO W02,ONTARIO,M6H2H3,VIPUL VERMA,HOMELIFE/MIRACLE REALTY LTD,"$1,349,999",43.6736874,79.4376783,25 days
2024-07-30,1297 DAVENPORT ROAD,TORONTO W02,ONTARIO,M6H2H3,VIPUL VERMA,HOMELIFE/MIRACLE REALTY LTD,"$1,349,999",43.6736874,79.4376783,25 days
2024-07-30,461 DONLANDS AVENUE,TORONTO E03,ONTARIO,M4J3S4,ZORAN PETER SPANOVIC,SUTTON GROUP ELITE REALTY INC.,"$1,349,900",43.6960435,79.3445317,26 days
2024-07-30,48 BRUMWELL STREET,TORONTO E10,ONTARIO,M1C2K8,TOM DELUCA,LIVING REALTY INC.,"$1,399,000",43.7911598,79.1490827,26 days
2024-07-30,3907 - 20 LOMBARD STREET,TORONTO C08,ONTARIO,M5C0A7,JASON CHEN,ALPHA REALTY INC.,"$1,390,000",43.6516524,79.3769603,26 days
2024-07-30,176 BEECHGROVE DRIVE,TORONTO E10,ONTARIO,M1E3Z5,KAVI ASHOK KUMAR,RE/MAX REAL ESTATE CENTRE INC.,"$1,500,000",43.7691434,79.1595755,26 days
2024-07-30,100 HOLLIS AVENUE,TORONTO E06,ONTARIO,M1N2C8,VITO VESSIO,RE/MAX PRIME PROPERTIES - UNIQUE GROUP,"$1,339,000",43.6946603,79.2659396,26 days
2024-07-30,407 - 390 CHERRY STREET,TORONTO C08,ONTARIO,M5A0E2,NOREEN KHO,RIGHT AT HOME REALTY,"$1,499,900",43.6505536,79.3573819,26 days
2024-07-30,2563 KINGSTON ROAD,TORONTO E08,ONTARIO,M1M1M1,SHAYNA LIST,ROYAL LEPAGE TERREQUITY REALTY,"$1,350,000",43.7117978,79.2472018,26 days
2024-07-30,42 HOLMCREST TRAIL,TORONTO E10,ONTARIO,M1C1V5,HEATHER ANN LEMIEUX,ROYAL LEPAGE CONNECT REALTY,"$1,500,000",43.7731494,79.1471854,26 days
2024-07-30,534 QUEEN STREET E,TORONTO C08,ONTARIO,M5A1V2,ROBERT FRANCIS,RE/MAX HALLMARK REALTY LTD.,"$1,480,000",43.6573232,79.3579139,26 days
2024-07-30,12 DONEWEN COURT,TORONTO C13,ONTARIO,M4A1P8,EVA HAASE,ROYAL LEPAGE SIGNATURE REALTY,"$1,498,000",43.732404,79.3142325,26 days
2024-07-30,493 CARLAW AVENUE,TORONTO E01,ONTARIO,M4K3H9,EFFIE PANAGIOTOPOULOS,RE/MAX ULTIMATE REALTY INC.,"$1,389,900",43.6696955,79.3433709,27 days
2024-07-30,73 HOCKEN AVENUE,TORONTO C02,ONTARIO,M6G2K1,GREGORY MICHAEL BROWN,RE/MAX HALLMARK REALTY LTD.,"$1,499,000",43.6810346,79.4213918,27 days
2024-07-30,894 OSSINGTON AVENUE,TORONTO W02,ONTARIO,M6G3V1,LENA N. D'ALFONSO,SUTTON GROUP-SECURITY REAL ESTATE INC.,"$1,399,000",43.6659469,79.4275515,27 days
2024-07-30,55 YPRES ROAD,TORONTO W03,ONTARIO,M6M1P1,WAQAR AFZAL,WELCOME HOME REALTY INC.,"$1,449,900",43.687967,79.4713698,27 days
2024-07-30,16 BENWAY DRIVE,TORONTO W10,ONTARIO,M9W1Z3,OLGA KOSTYUKHINA,SUTTON GROUP-ADMIRAL REALTY INC.,"$1,459,000",43.7162435,79.5631602,27 days
2024-07-30,534 PAPE AVENUE,TORONTO E01,ONTARIO,M4K3R4,ALBERT HWANG,REAL ESTATE HOMEWARD,"$1,450,000",43.6740197,79.3431253,27 days
2024-07-30,114 SEXTON CRESCENT,TORONTO C15,ONTARIO,M2H2L6,IMRAN MEHDI GONDAL,RE/MAX REAL ESTATE CENTRE INC.,"$1,349,100",43.800567,79.34575,27 days
2024-07-30,75A GARDEN AVENUE,TORONTO W01,ONTARIO,M6R1H8,LISA BEDNARSKI,BSPOKE REALTY INC.,"$1,499,000",43.644308,79.4438077,27 days
2024-07-30,97 CHELLIAH COURT,TORONTO E11,ONTARIO,M1B5S1,SUSIE INTHIRAN,LUXURY HOMES WORLD INC.,"$1,499,000",43.799126,79.1875214,27 days
2024-07-30,2115 DUFFERIN STREET,TORONTO C03,ONTARIO,M6E3R3,FRANK POLSINELLO,RE/MAX HALLMARK POLSINELLO GROUP REALTY,"$1,349,000",43.6879268,79.4468094,27 days
2024-07-30,46 SANDBOURNE CRESCENT,TORONTO C15,ONTARIO,M2J3A6,GEORGIA KOTIADIS-CARNEVALE,ROYAL LEPAGE SIGNATURE REALTY,"$1,399,000",43.790039,79.3476004,27 days
2024-07-30,1211 - 100 HARRISON GARDEN BOULEVARD E,TORONTO C14,ONTARIO,M2N2T2,CHRISTINE MENG,BESTLIVING SIGNATURE REALTY INC.,"$1,349,999",43.7571072,79.4040667,27 days
2024-07-30,501 - 80 CUMBERLAND STREET,TORONTO C02,ONTARIO,M5R3V1,NORA CHAN,CENTURY 21 ATRIA REALTY INC.,"$1,450,000",43.6706282,79.3903517,27 days
2024-07-30,124 EUCLID AVENUE,TORONTO C01,ONTARIO,M6J2J9,MING LI,HOMELIFE LANDMARK REALTY INC.,"$1,488,000",43.6495405,79.4090455,27 days
2024-07-30,1410 - 30 INN ON THE PARK DRIVE,TORONTO C13,ONTARIO,M3C0P7,AARON KROLL,KROLL REAL ESTATE LTD.,"$1,355,000",43.7194473,79.3480625,29 days
2024-07-30,132 SHUTER STREET,TORONTO C08,ONTARIO,M5A1V8,JOE G. MACHADO,HOMELIFE REGIONAL REALTY LTD.,"$1,450,000",43.6559765,79.3717998,30 days
2024-07-30,LPH4706 - 50 CHARLES STREET E,TORONTO C08,ONTARIO,M4Y0C3,KEVIN CEN,BAY STREET GROUP INC.,"$1,349,900",43.6693044,79.3838586,31 days
2024-07-30,6 GENEVA AVENUE,TORONTO C08,ONTARIO,M5A2J8,ALICE LAI FONG NIP,TRADEWORLD REALTY INC,"$1,399,000",43.6652377,79.3620433,31 days
2024-07-30,22 BAMBER COURT,TORONTO C13,ONTARIO,M3A2N6,GOSIA GORECKI,RE/MAX EXPERTS,"$1,429,000",43.7427559,79.3191272,31 days
2024-07-30,18 COBALT STREET,TORONTO W04,ONTARIO,M6M2K2,JORGE M. AGUILAR,RE/MAX ULTIMATE REALTY INC.,"$1,499,000",43.6925654,79.499849,31 days
2024-07-30,6409 - 1 BLOOR STREET E,TORONTO C08,ONTARIO,M4W0A8,LU ZHOU,CENTURY 21 HERITAGE GROUP LTD.,"$1,500,000",43.6701587,79.3862462,31 days
2024-07-30,10 LUDSTONE DRIVE,TORONTO W09,ONTARIO,M9R2H9,MONICA THAPAR,SNOBAR REALTY GROUP INC.,"$1,379,888",43.6895962,79.5673207,32 days
2024-07-30,TH01 - 35 BIRCHCLIFF AVENUE,TORONTO E06,ONTARIO,M1N3C5,TAWNYA DEL BEN FLETCHER,HARLOWE REALTY CORPORATION,"$1,499,990",43.6914365,79.2645164,32 days
2024-07-30,22 DONORA DRIVE,TORONTO E03,ONTARIO,M4B1B5,SUSAN GUCCI,ROYAL LEPAGE SIGNATURE SUSAN GUCCI REALTY,"$1,359,000",43.7011708,79.2947704,32 days
2024-07-30,69 ADANAC DRIVE,TORONTO E08,ONTARIO,M1M2E6,AVA PROCUNIER,OUR NEIGHBOURHOOD REALTY INC.,"$1,300,000",43.7385894,79.2296155,32 days
2024-07-30,29 HILL GARDEN ROAD,TORONTO W09,ONTARIO,M9P1X8,SAM ALLAN MCDADI,SAM MCDADI REAL ESTATE INC.,"$1,350,000",43.6945648,79.5238761,32 days
2024-07-30,43 MERRYGALE CRESCENT,TORONTO W08,ONTARIO,M9B5N9,MIRANDA BIMO,SUTTON GROUP-ADMIRAL REALTY INC.,"$1,410,000",43.6572754,79.5607284,32 days
2024-07-30,545 WOODBINE AVENUE,TORONTO E02,ONTARIO,M4E2H7,CLIFFORD GONSALVES,HOMELIFE/MIRACLE REALTY LTD,"$1,349,900",43.6760908,79.3085093,32 days
2024-07-30,194 SYLVAN AVENUE,TORONTO E08,ONTARIO,M1E1A3,SUZANNE CLAIRE MANVELL,ROYAL LEPAGE REAL ESTATE SERVICES LTD.,"$1,399,000",43.7389468,79.2036737,32 days
2024-07-30,254 ATLAS AVENUE,TORONTO C03,ONTARIO,M6C3P7,GARY A. BROWN,RE/MAX ALL-STARS REALTY INC.,"$1,500,000",43.6888503,79.4343268,32 days
2024-07-30,115 LINSMORE CRESCENT,TORONTO E03,ONTARIO,M4J4K7,DAN CAMPANELLA,KELLER WILLIAMS ADVANTAGE REALTY,"$1,350,000",43.6863447,79.3313782,32 days
2024-07-30,17 KINGS PARK BOULEVARD,TORONTO E03,ONTARIO,M4J2B7,LI KOO,BOSLEY REAL ESTATE LTD.,"$1,349,000",43.6852312,79.3458406,32 days
2024-07-30,68-70 LAIRD DRIVE,TORONTO C11,ONTARIO,M4G3V1,FRED KHADDAD,RE/MAX REALTRON REALTY INC.,"$1,350,000",43.7051588,79.3616423,32 days
2024-07-30,48 CONNAUGHT AVENUE,TORONTO C07,ONTARIO,M2M1G8,RYAN ABBASSI,RE/MAX HALLMARK REALTY LTD.,"$1,398,000",43.7887874,79.4191721,32 days
2024-07-30,3702 - 28 FREELAND STREET,TORONTO C01,ONTARIO,M5E0E3,DARRIN LEITCH,RE/MAX REALTRON REALTY INC.,"$1,399,880",43.6436476,79.3737615,32 days
2024-07-30,18 GOLDTHREAD TERRACE,TORONTO,ONTARIO,M3H0B6,PAULINE DANIEL,ROYAL LEPAGE REALTY CENTRE BROKERAGE,"$1,399,000",43.76272728,79.45035276,33 days
2024-07-30,10 CANHAM CRESCENT,TORONTO E07,ONTARIO,M1S2H6,JOYCE WONG,RIGHT AT HOME REALTY,"$1,368,000",43.792507,79.2751479,33 days
2024-07-30,1502 - 1815 YONGE STREET,TORONTO C10,ONTARIO,M4T2A4,BELINDA MARIE LELLI,ROYAL LEPAGE REAL ESTATE SERVICES LTD.,"$1,388,000",43.6961373,79.3956673,33 days
2024-07-30,5105 - 108 PETER STREET,TORONTO C01,ONTARIO,M5V0W2,RILEY BOYKO,IRISE,"$1,498,800",43.6476915,79.3933074,33 days
2024-07-30,18 GOLDTHREAD TERRACE,TORONTO C06,ONTARIO,M3H0B6,HALINA DANIEL,ROYAL LEPAGE REALTY CENTRE,"$1,399,000",43.7627228,79.4503538,34 days
2024-07-30,LPH05 - 660 SHEPPARD AVENUE E,TORONTO C15,ONTARIO,M2K3E5,DARYL KING,RE/MAX HALLMARK REALTY LTD.,"$1,498,000",43.7684936,79.3810379,34 days
2024-07-30,91 VALDOR DRIVE,TORONTO E07,ONTARIO,M1V1R3,HARRY SIU,ANJIA REALTY,"$1,488,000",43.8115577,79.2897552,34 days
2024-07-30,3759 ELLESMERE ROAD,TORONTO E10,ONTARIO,M1C1H8,DAVID ANTON,ROYAL LEPAGE CONNECT REALTY,"$1,499,900",43.7908544,79.1691915,34 days
2024-07-30,241 PANNAHILL ROAD,TORONTO C06,ONTARIO,M3H4N9,SAM SANTINO,SUTTON GROUP-ASSOCIATES REALTY INC.,"$1,399,000",43.7607997,79.4636447,34 days
2024-07-30,16 - 16 WILLIAM POOLE WAY,TORONTO C14,ONTARIO,M2N7A7,MIKE SHEEHY,RE/MAX PRIME PROPERTIES - UNIQUE GROUP,"$1,488,888",43.7646228,79.407621,34 days
2024-07-30,1205 - 8 THE ESPLANADE,TORONTO C08,ONTARIO,M5E0A6,LOUIS H. DESTOUNIS,HARVEY KALLES REAL ESTATE LTD.,"$1,499,000",43.6460366,79.3763206,34 days
2024-07-30,3408 - 33 HARBOUR SQUARE,TORONTO C01,ONTARIO,M5J2G2,ASLI OZDEMIR,SOTHEBY'S INTERNATIONAL REALTY CANADA,"$1,498,000",43.639944,79.3772596,35 days
2024-07-30,43E GREEN BELT DRIVE,TORONTO C13,ONTARIO,M3C1L8,ZELLO JOVANOVIC,RE/MAX PROFESSIONALS INC.,"$1,388,000",43.7308956,79.3356341,35 days
2024-07-30,355 LANSDOWNE AVENUE,TORONTO C01,ONTARIO,M6H3Y2,HEATHER HADDEN,BERKSHIRE HATHAWAY HOMESERVICES TORONTO REALTY,"$1,499,000",43.6519037,79.440137,35 days
2024-07-30,351 BURNHAMTHORPE ROAD,TORONTO W08,ONTARIO,M9B2A5,GILLIAN SARAH COUSIN,RE/MAX ABOUTOWNE REALTY CORP.,"$1,350,000",43.6482965,79.5523881,35 days
2024-07-30,5005 - 180 UNIVERSITY AVENUE,TORONTO C01,ONTARIO,M5H0A2,JOHN TOMASONE,THE AGENCY,"$1,360,000",43.6488268,79.386259,35 days
2024-07-30,351 BURNHAMTHORPE ROAD,ETOBICOKE,ONTARIO,M9B2A5,GILLIAN COUSIN,"RE/MAX ABOUTOWNE REALTY CORP., BROKERAGE","$1,350,000",43.64806561,79.55322719,35 days
2024-07-30,19 DALLAS ROAD,TORONTO C07,ONTARIO,M2R2J3,JORDAN PAL,KROLL REAL ESTATE LTD.,"$1,488,800",43.781458,79.4350578,35 days
2024-07-30,809 - 1 PALACE PIER COURT,TORONTO W06,ONTARIO,M8V3W9,LUKE DALINDA,ROYAL LEPAGE REAL ESTATE SERVICES LTD.,"$1,300,000",43.6314479,79.4726297,36 days
2024-07-30,55 SAM FRUSTAGLIO DRIVE,TORONTO W04,ONTARIO,M9N3Y6,KAMAL SANDHU,RE/MAX GOLD REALTY INC.,"$1,349,000",43.69851,79.50707,36 days
2024-07-30,58 WARESIDE ROAD,TORONTO W08,ONTARIO,M9C3B6,FRANK KOSEC,UNITED CENTURY REAL ESTATE LIMITED,"$1,395,000",43.6514936,79.5719837,36 days
2024-07-30,611 STAINES ROAD,TORONTO E11,ONTARIO,M1X2A7,PEGGY TSE,RE/MAX TRILLION REALTY,"$1,399,800",43.8383156,79.2317614,37 days
2024-07-30,609 - 630 KINGSTON ROAD,TORONTO E02,ONTARIO,M4E0B7,GILLIAN GOOK,REAL BROKER ONTARIO LTD.,"$1,499,000",43.6789438,79.2991154,37 days
2024-07-30,42 YPRES ROAD,TORONTO W03,ONTARIO,M6M1N9,IMRAN AHMAD,RE/MAX REAL ESTATE CENTRE INC.,"$1,499,000",43.6884382,79.4709097,38 days
2024-07-30,18 GLENBOROUGH PARK CRESCENT,TORONTO C07,ONTARIO,M2R2G5,PEDRAM HOSSEINZADEH,RE/MAX REALTRON REALTY INC.,"$1,498,000",43.7772192,79.4335297,38 days
2024-07-30,146 WINTERMUTE BOULEVARD,TORONTO E05,ONTARIO,M1W3N8,MELCHOR KO,ROYAL LEPAGE YOUR COMMUNITY REALTY,"$1,388,000",43.818545,79.3173103,38 days
2024-07-30,2403 - 75 WYNFORD HEIGHTS CRESCENT,TORONTO C13,ONTARIO,M3C3H9,ALI RAZA,CENTURY 21 LEADING EDGE REALTY INC.,"$1,499,999",43.7285535,79.3260962,38 days
2024-07-30,36 LANYARD ROAD,TORONTO W05,ONTARIO,M9M1Y7,SAEED AHMAD ZIA,SAVE MAX GOLD ESTATE REALTY,"$1,399,900",43.7477441,79.5438125,38 days
2024-07-30,99 HIGHVIEW AVENUE,TORONTO E06,ONTARIO,M1N2H6,ERIC MEIR ZAFRANI,HOMELIFE FRONTIER REALTY INC.,"$1,499,000",43.7006302,79.2613224,38 days
2024-07-30,116 KEELER BOULEVARD,TORONTO E09,ONTARIO,M1E4K9,ABI AMALAN,HOMELIFE/FUTURE REALTY INC.,"$1,499,900",43.7937213,79.2017543,38 days
2024-07-30,65 NORMANDY BOULEVARD,TORONTO E02,ONTARIO,M4L3K4,CARRIE STILES,KELLER WILLIAMS EXPERIENCE REALTY,"$1,399,999",43.6771672,79.3121787,38 days
2024-07-30,65 NORMANDY BOULEVARD,TORONTO,ONTARIO,M4L3K4,CARRIE STILES,KELLER WILLIAMS EXPERIENCE REALTY BROKERAGE,"$1,399,999",43.67744796,79.31243985,38 days
2024-07-30,61 BUTTONWOOD AVENUE,TORONTO W04,ONTARIO,M6M2H9,CIELITO LINDO KAHANO PARONE,CRESCENT REAL ESTATE INC.,"$1,350,000",43.689693,79.5037853,39 days
2024-07-30,67C FINCH AVENUE W,TORONTO C07,ONTARIO,M2N2H3,HWAN KIM,RIGHT AT HOME REALTY,"$1,380,000",43.7782775,79.4212568,39 days
2024-07-30,177 AVONDALE AVENUE,TORONTO C14,ONTARIO,M2N2V4,CLARE TATTERSALL,ROYAL LEPAGE REAL ESTATE SERVICES LTD.,"$1,429,868",43.7603137,79.3998382,39 days
2024-07-30,403 - 285 AVENUE ROAD,TORONTO C02,ONTARIO,M4V2G8,MICHELLE ANNE SCHIPPER,RE/MAX REALTRON REALTY INC.,"$1,499,000",43.6790191,79.3981227,39 days
2024-07-30,29 LOGANDALE ROAD,TORONTO C14,ONTARIO,M2N4H3,JOY CAI,RE/MAX ELITE REAL ESTATE,"$1,379,000",43.7762414,79.4095174,39 days
2024-07-30,8 NORTHAMPTON DRIVE,TORONTO W08,ONTARIO,M9B4S6,SHAHIN MAHALLATI,SEARCH REALTY,"$1,479,900",43.6429595,79.5505499,39 days
2024-07-30,123 CHARTLAND BOULEVARD S,TORONTO E07,ONTARIO,M1S2R9,YONG LI,MASTER'S TRUST REALTY INC.,"$1,328,000",43.800752,79.2768126,39 days
2024-07-30,100 FALSTAFF AVENUE,TORONTO W04,ONTARIO,M6L2E4,ARMAND SOBERANO,ROYAL LEPAGE TERREQUITY TEAM SOBERANO,"$1,499,900",43.7173921,79.4995415,40 days
2024-07-30,3 COE HILL DRIVE,TORONTO W01,ONTARIO,M6S3C7,KIM TRAN,RE/MAX HALLMARK REALTY LTD.,"$1,450,000",43.6376806,79.4682937,40 days
2024-07-30,154 FINCH AVENUE W,TORONTO C07,ONTARIO,M2N2J2,DENNIS HO,HOMELIFE GOLD PACIFIC REALTY INC.,"$1,499,000",43.7771574,79.4288316,40 days
2024-07-30,1803 - 135 EAST LIBERTY STREET,TORONTO C01,ONTARIO,M6K3P6,HAMID PARSA,CENTURY 21 ATRIA REALTY INC.,"$1,388,000",43.638566,79.416906,40 days
2024-07-30,1904 - 200 BLOOR STREET W,TORONTO C02,ONTARIO,M5S0B1,SOFIA WU,HOMELIFE LANDMARK REALTY INC.,"$1,490,000",43.6686329,79.3953332,40 days
2024-07-30,23 LANSDOWNE AVENUE,TORONTO W01,ONTARIO,M6K2V7,LANA POVZIKOV,FOREST HILL REAL ESTATE INC.,"$1,475,000",43.6415642,79.436737,40 days
2024-07-30,30 HOUNDTRAIL DRIVE,TORONTO E10,ONTARIO,M1C4C4,BRENT CELESTINE,CENTURY 21 ATRIA REALTY INC.,"$1,350,000",43.7964461,79.1838459,40 days
2024-07-30,24 PANMURE CRESCENT E,TORONTO E09,ONTARIO,M1K4Y6,RONALDO LEVERT,RE/MAX PREMIER INC.,"$1,300,000",43.7462662,79.2538736,40 days
2024-07-30,1 NEDDIE DRIVE,TORONTO E05,ONTARIO,M1T2S9,JOE TANNOUS,RIGHT AT HOME REALTY,"$1,388,000",43.7795253,79.2953015,40 days
2024-07-30,86 NORTH PARK DRIVE,TORONTO W04,ONTARIO,M6L1K2,BEHI SHAFIEI,METROPOLITAN COMMERCIAL REALTY INC.,"$1,399,000",43.7116501,79.47805,41 days
2024-07-30,103 - 520 RIVERSIDE DRIVE,TORONTO W02,ONTARIO,M6S4B5,ANDREA MORRISON,BERKSHIRE HATHAWAY HOMESERVICES WEST REALTY,"$1,350,000",43.650136,79.4897599,41 days
2024-07-30,34 KNOX AVENUE,TORONTO W05,ONTARIO,M9L2M3,PAULO CONDECO,ROYAL LEPAGE TERREQUITY REALTY,"$1,498,000",43.7583118,79.5726774,41 days
2024-07-30,PH108 - 75 CANTERBURY PLACE,TORONTO C07,ONTARIO,M2N0L2,MARCANTHONY ROSSI,ROYAL LEPAGE TERREQUITY REALTY,"$1,338,000",43.774199,79.4152874,41 days
2024-07-30,145 ELLERSLIE AVENUE,TORONTO C07,ONTARIO,M2R1C1,YUMEI CHEN,TRADEWORLD REALTY INC,"$1,488,000",43.769877,79.4200152,41 days
2024-07-30,626 ADELAIDE STREET W,TORONTO C01,ONTARIO,M6J1A9,ROGER TRAVASSOS,REAL BROKER ONTARIO LTD.,"$1,468,800",43.6449949,79.4052499,41 days
2024-07-30,302 - 346 DAVENPORT ROAD,TORONTO C02,ONTARIO,M5R1K6,TANIA WONG,BOSLEY REAL ESTATE LTD.,"$1,350,000",43.6752924,79.4013484,41 days
2024-07-30,386 WESTMORELAND AVENUE N,TORONTO W02,ONTARIO,M6H3A7,NELSON LOU LOURENCO,SUTTON GROUP ELITE REALTY INC.,"$1,399,999",43.6720516,79.4352922,41 days
2024-07-30,386 WESTMORELAND AVENUE N,TORONTO,ONTARIO,M6H3A7,NELSON LOURENCO,SUTTON GROUP ELITE REALTY INC BROKERAGE,"$1,399,999",43.67204739,79.43524712,42 days
2024-07-30,530 SILVERTHORN AVENUE,TORONTO W03,ONTARIO,M6M3H7,RONALD A. SILVA RODRIGUEZ,KELLER WILLIAMS ADVANTAGE REALTY,"$1,379,000",43.6899832,79.4678234,42 days
2024-07-30,23 PENETANG CRESCENT,TORONTO E09,ONTARIO,M1K4Y4,RAFFINA ZONBIA,ROYAL LEPAGE CONNECT REALTY,"$1,499,900",43.7452287,79.2561934,42 days
2024-07-30,TH01 - 62 DAN LECKIE WAY,TORONTO C01,ONTARIO,M5V0K1,JASON JOE LUPO,DREAM HOME REALTY INC.,"$1,388,000",43.6385783,79.3979231,42 days
2024-07-30,18B - 33 ST. GASPAR COURT,TORONTO W05,ONTARIO,M9L0A4,LAURA COMPAGNI,ROYAL LEPAGE YOUR COMMUNITY REALTY,"$1,399,000",43.7631809,79.5692403,43 days
2024-07-30,16 BECKENHAM COURT,TORONTO W08,ONTARIO,M9C3K9,JAMES KIM,SUTTON GROUP-ADMIRAL REALTY INC.,"$1,357,000",43.6492395,79.5730197,43 days
2024-07-30,1906 - 2020 BATHURST STREET,TORONTO C03,ONTARIO,M5P0A6,SONGYU NI,RIGHT AT HOME REALTY,"$1,350,000",43.7007626,79.4256203,44 days
2024-07-30,TH3 - 135 ANTIBES DRIVE,TORONTO C07,ONTARIO,M2R2Z1,ALEX CHALMIEV,SUTTON GROUP-ADMIRAL REALTY INC.,"$1,388,000",43.7803137,79.445523,44 days
2024-07-30,10 CREWE AVENUE,TORONTO E03,ONTARIO,M4C2J1,MICHAEL LIN,HOMECOMFORT REALTY INC.,"$1,498,000",43.6936259,79.3092855,44 days
2024-07-30,402 - 350 LONSDALE ROAD,TORONTO C03,ONTARIO,M5P1R6,EREZ HENYA,FOREST HILL REAL ESTATE INC.,"$1,320,000",43.6884877,79.4146249,44 days
2024-07-30,8 HUMHELLER ROAD,TORONTO W10,ONTARIO,M9W5K3,IRYNA CHRONOPOULOS,IPRO REALTY LTD.,"$1,395,000",43.7231774,79.5878318,44 days
2024-07-30,5 DELBEATRICE CRESCENT,TORONTO E10,ONTARIO,M1C3G5,JOHN F. HARTFORD,RIGHT AT HOME REALTY,"$1,429,000",43.7808867,79.15661,44 days
2024-07-30,PH07 - 39 BRANT STREET,TORONTO C01,ONTARIO,M5V2L9,MAX TAYLOR,RE/MAX ULTIMATE REALTY INC.,"$1,495,000",43.6464821,79.3980985,45 days
2024-07-30,24 FARMINGTON CRESCENT,TORONTO,ONTARIO,M1S1G1,JIM MO,RE/MAX REALTRON JIM MO REALTY,"$1,500,000",43.793042,79.2906,45 days
