DATE,ADDRESS,CITY,STATE,POSTAL CODE,AGENT,BROKER,PRICE,LATITUDE,LONGITUDE
6/24/2024,# 8 - 517 KINGSTON ROAD,TORONTO,ONTARIO,M4L1V5,CAILEY HEAPS,ROYAL LEPAGE REAL ESTATE SERVICES HEAPS ESTRIN TEAM,"$999,900",43.6775965,79.3018991
02/07/2024,#106 - 360 RIDELLE AVENUE,TORONTO,ONTARIO,M6B1K1,MELODIA BENEDICTO,CENTURY 21 GREEN REALTY INC.,"$499,900",43.7048516,79.4399101
03/07/2024,#1101 - 220 VICTORIA STREET,TORONTO,ONTARIO,M5B2R6,ANNETTE NUNNO,CENTURY 21 PARKLAND LTD.,"$599,000",43.6548584,79.3792134
03/07/2024,#1406 - 3 MASSEY SQUARE,TORONTO,ONTARIO,M4C5L5,SHAIKH HASIB HOSAIN,HOMELIFE/FUTURE REALTY INC.,"$574,900",43.696799,79.2934126
03/07/2024,#1501 - 352 FRONT STREET W,TORONTO,ONTARIO,M5V0K3,ROBERT MIRABELLI,SUTTON GROUP-SECURITY REAL ESTATE INC.,"$549,000",43.6433997,79.3924037
03/07/2024,#2007 - 25 TOWN CENTRE COURT,TORONTO,ONTARIO,M1P0B4,LINDA Y. H. CHAN,LIVING REALTY INC.,"$568,000",43.7733534,79.2547191
03/07/2024,#2009 - 251 MANITOBA STREET,TORONTO,ONTARIO,M8Y0C7,FEEFA KHAN,RE/MAX REALTY SERVICES INC.,"$579,000",43.6238372,79.4893647
03/07/2024,#2010 - 21 OVERLEA BOULEVARD,TORONTO,ONTARIO,M4H1P2,NASIM YUSUFI,ROYAL LEPAGE CITIZEN REALTY,"$520,000",43.7040521,79.3491519
03/07/2024,#208 - 25 MAITLAND STREET,TORONTO,ONTARIO,M4Y2W1,LESLI GAYNOR,FOREST HILL REAL ESTATE INC.,"$599,000",43.6638091,79.383028
04/07/2024,#3701 - 30 NELSON STREET,TORONTO,ONTARIO,M5V0H5,GARRY BASSAN,HOUSESIGMA INC.,"$1,189,000",43.6491828,79.3883651
03/07/2024,#3708 - 65 ST MARY STREET,TORONTO,ONTARIO,M5S0A6,NIMA KOMPANI,RIGHT AT HOME REALTY,"$599,000",43.6670657,79.3894282
02/07/2024,#5 - 319 JARVIS STREET,TORONTO,ONTARIO,M5B0C8,MAGGIE CAI,BAY STREET GROUP INC.,"$79,900",43.6597721,79.3754208
6/24/2024,#601 - 1603 EGLINTON AVENUE W,TORONTO,ONTARIO,M6E0A1,ROBERT MIRABELLI,SUTTON GROUP-SECURITY REAL ESTATE INC.,"$499,000",43.696916,79.4431064
03/07/2024,#710 - 625 THE WEST MALL,TORONTO,ONTARIO,M9C4W9,CLEVELAND LEWIS,HOMELIFE/MIRACLE REALTY LTD,"$545,555",43.6552669,79.5707826
6/24/2024,#711 - 19 WESTERN BATTERY ROAD,TORONTO,ONTARIO,M6K0E3,EMERSON VIVAS ZAMBRANO,ROYAL LEPAGE MEADOWTOWNE REALTY,"$659,900",43.6397197,79.4113714
29/06/2024,#802 - 110 CHARLES STREET,TORONTO,ONTARIO,M5S1K6,OMRAN ALIKHAN,ROYAL LEPAGE ELITE REALTY,"$849,786",43.6678728,79.3912425
6/24/2024,#PS06 - 52 FOREST MANOR ROAD,TORONTO,ONTARIO,M2J0E2,SHELDON TSUI,RE/MAX ELITE REAL ESTATE,"$499,000",43.7733625,79.3459053
03/07/2024,#S521 - 180 MILL STREET,TORONTO,ONTARIO,M5A0V7,ANISSA WONG,RE/MAX REALTRON REALTY INC.,"$589,900",43.6520432,79.3551781
27/06/2024,0 LEAFIELD DRIVE,TORONTO,ONTARIO,M1W2T2,CHRISTIAN NACCARATO,KELLER WILLIAMS REALTY CENTRES,"$699,999",43.7810871,79.3245078
02/07/2024,0108 - 170 SUDBURY STREET,TORONTO,ONTARIO,M6J1A0,ELENA SARADIDIS,ROYAL LEPAGE SIGNATURE REALTY,"$499,900",43.641759,79.4246836
27/06/2024,090 - 319 JARVIS STREET,TORONTO,ONTARIO,M5B0C8,NICHOLAS TAMBURI,REALTY WEALTH GROUP INC.,"$499,000",43.6597926,79.3754201
03/07/2024,0923 - 591 SHEPPARD AVENUE E,TORONTO,ONTARIO,M2K1B4,CHRISTINE ZHU,RE/MAX REALTRON REALTY INC.,"$599,000",43.7670509,79.3839578
04/07/2024,1 - 125 LONG BRANCH AVENUE,TORONTO,ONTARIO,M8W0A9,RICHARD ROBIBERO,PANORAMA R.E. LIMITED,"$899,900",43.5962507,79.5342208
25/06/2024,1 - 16 KIRTLING PLACE,TORONTO,ONTARIO,M2L1W4,BARRY COHEN,RE/MAX REALTRON BARRY COHEN HOMES INC.,"$2,750,000",43.7507326,79.3756379
6/24/2024,1 - 2075 WARDEN AVENUE,TORONTO,ONTARIO,M1T3R1,WILLIAM MIAO,RE/MAX EXCEL REALTY LTD.,"$790,000",43.7780018,79.3063579
6/24/2024,1 - 29 WESLEY STREET,TORONTO,ONTARIO,M8Y2W5,SHEETAL MALHOTRA,PONTIS REALTY INC.,"$3,000/MONTHLY",43.6210543,79.4968552
04/07/2024,1 - 3100 BAYVIEW AVENUE,TORONTO,ONTARIO,M2N5L3,REBEKAH CELESTE ALTO,RE/MAX NOBLECORP REAL ESTATE,"$1,788,000",43.7810599,79.3926424
6/24/2024,1 - 80 EASTWOOD PARK GARDENS,TORONTO,ONTARIO,M8W1N6,ALFRED MARTINELLI,RE/MAX EXPERTS,"$1,148,000",43.5954962,79.5353595
6/24/2024,1 ABBOTSFORD ROAD,TORONTO,ONTARIO,M2N2P6,YASHAR EINY,ROYAL LEPAGE TERREQUITY CONFIDENCE REALTY,"$3,995,000",43.7706977,79.4221195
6/26/2024,1 BRAYWIN DRIVE,TORONTO,ONTARIO,M9P2N9,CURTIS GODDARD,RE/MAX HALLMARK CHAY REALTY,"$1,649,900",43.7003057,79.5350515
6/29/2024,1 CAMILLA CRESCENT,TORONTO,ONTARIO,M1L1Y9,JEY JEYKUMAR,RE/MAX REALTRON REALTY INC.,"$1,999,900",43.7135064,79.2917556
25/06/2024,1 COUNTRY LANE,TORONTO,ONTARIO,M2L1E1,KAREN ROSENBERG,HARVEY KALLES REAL ESTATE LTD.,"$5,500,000",43.7401818,79.3821312
29/06/2024,1 FORTHBRIDGE CRESCENT,TORONTO,ONTARIO,M3M1Z9,KARIN ROTEM,RE/MAX REALTRON REALTY INC.,"$1,200,000",43.72977,79.49977
6/24/2024,1 MARKET STREET UNIT# 1413,TORONTO,ONTARIO,M5E0A2,OLIVIA TORUN,REMAX REALTY ENTERPRISES INC,"$1,088,000",43.64680994,79.37090014
25/06/2024,1 MAYNARD AVENUE S,TORONTO,ONTARIO,M6K2Z7,JAMES HUGH BRIGHT,ROYAL LEPAGE SIGNATURE REALTY,"$2,650,000",43.6371484,79.4370455
6/29/2024,1 PARKCREST DRIVE,TORONTO,ONTARIO,M1M2Y9,TOM JOSEPH,CENTURY 21 PERCY FULTON LTD.,"$1,899,999",43.7331379,79.2157497
29/06/2024,1 ROYALEIGH AVENUE,TORONTO,ONTARIO,M9P2J4,JEFF MACKO,RE/MAX PROFESSIONALS INC.,"$975,500",43.6989918,79.5307808
27/06/2024,1 WEST AVENUE,TORONTO,ONTARIO,M4M2L7,JENNY SIMON,SAGE REAL ESTATE LIMITED,"$1,749,000",43.6641484,79.3459015
03/07/2024,1 YORKVILLE AVENUE,TORONTO,ONTARIO,M4W1L1,OSCAR WONG,HOMELIFE LANDMARK REALTY INC.,"$15,000",43.6716254,79.3877935
27/06/2024,10 - 169 JONES AVENUE,TORONTO,ONTARIO,M4M3A2,ARI ZADEGAN,RE/MAX HALLMARK ARI ZADEGAN GROUP REALTY,"$1,099,900",43.6671259,79.3343524
03/07/2024,10 - 32 SENTINEL ROAD,TORONTO,ONTARIO,M3M2Y8,HAMID BARZEGAR KHASELOUI,CENTURY 21 LEADING EDGE REALTY INC.,"$599,000",43.7450269,79.4926835
27/06/2024,10 CANHAM CRESCENT,TORONTO,ONTARIO,M1S2H6,JOYCE WONG,RIGHT AT HOME REALTY,"$1,368,000",43.792507,79.2751479
04/07/2024,10 EDGEHILL ROAD,TORONTO,ONTARIO,M9A4N3,DAWNA MARIE BORG,RE/MAX PREMIER INC.,"$3,688,000",43.6657005,79.5173172
6/26/2024,10 FLAGSTAFF ROAD,TORONTO,ONTARIO,M1L1S9,RAY COCHRANE,RE/MAX HALLMARK REALTY LTD.,"$1,099,900",43.7100672,79.2726656
27/06/2024,10 GARDENTREE STREET,TORONTO,ONTARIO,M1E2E9,ABUL HASNAT,RE/MAX METROPOLIS REALTY,"$899,000",43.7583034,79.1870389
29/06/2024,10 LUDSTONE DRIVE,TORONTO,ONTARIO,M9R2H9,MONICA THAPAR,SNOBAR REALTY GROUP INC.,"$1,379,888",43.6895962,79.5673207
04/07/2024,10 ROCKINGHAM DRIVE,TORONTO,ONTARIO,M9A1P3,PAUL NUSCA,BERKSHIRE HATHAWAY HOMESERVICES WEST REALTY,"$3,650,000",43.6604209,79.5342648
27/06/2024,10 ROYCREST AVENUE,TORONTO,ONTARIO,M2N1R2,KAREN S DANIEL,HARVEY KALLES REAL ESTATE LTD.,"$1,999,000",43.7587218,79.4271535
27/06/2024,10 STAMFORD SQUARE S,TORONTO,ONTARIO,M1L1X3,ABDUL MANNAN,CENTURY 21 LEADING EDGE REALTY INC.,"$2,368,000",43.7110481,79.2949251
27/06/2024,10 TOTTERIDGE ROAD,TORONTO,ONTARIO,M9A1Z1,SUSAN TALLARICO,ROYAL LEPAGE REAL ESTATE SERVICES LTD.,"$2,725,000",43.669653,79.54406
29/06/2024,10 WILBY CRESCENT,TORONTO,ONTARIO,M6N0B6,BETSY WANG,RE/MAX ESCARPMENT REALTY INC.,"$599,000",43.697835,79.512316
03/07/2024,10 WILBY CRESCENT,"UNIT #309
TORONTO",ONTARIO,M6N0B6,BETSY WANG,RE/MAX ESCARPMENT REALTY INC.,"$599,000",43.697835,79.512316
6/26/2024,100 BASTEDO AVENUE,TORONTO,ONTARIO,M4C3N1,MELANIE T. J. WRIGHT,UNION REALTY BROKERAGE INC.,"$999,900",43.6823846,79.3186641
03/07/2024,100 CANON JACKSON DRIVE DRIVE UNIT# 64,TORONTO,ONTARIO,M6M0C1,BALDEEP RATOL,EXECUTIVE REAL ESTATE SERVICES LTD.,"$599,999",43.69773371,79.47313681
04/07/2024,100 HOLLIS AVENUE,TORONTO,ONTARIO,M1N2C8,VITO VESSIO,RE/MAX PRIME PROPERTIES - UNIQUE GROUP,"$1,375,000",43.6946603,79.2659396
6/26/2024,1001 - 105 THE QUEENSWAY,TORONTO,ONTARIO,M6S5B5,MICHAEL ANDREW ROY,SUTTON GROUP OLD MILL REALTY INC.,"$529,999",43.6362553,79.4708719
02/07/2024,1001 - 200 LOTHERTON PATHWAY,TORONTO,ONTARIO,M6B2G9,KARU KANDIAH,HOMELIFE GALAXY REAL ESTATE LTD.,"$494,900",43.7070302,79.4663135
04/07/2024,1001 - 2020 BATHURST STREET,TORONTO,ONTARIO,M5P0A6,WAYNE SKINNER,CENTURY 21 LEADING EDGE REALTY INC.,"$1,099,999",43.7007418,79.4257598
03/07/2024,1001 - 3151 BRIDLETOWNE CIRCLE,TORONTO,ONTARIO,M1W2T1,FRANK LEO,RE/MAX WEST REALTY INC.,"$599,000",43.7976179,79.3198605
03/07/2024,1001 - 38 ELM STREET,TORONTO,ONTARIO,M5G2K5,ZHEN LIANG,RE/MAX EXCEL ADVANTAGE REALTY,"$599,000",43.6578425,79.3835701
27/06/2024,1001 - 5 MICHAEL POWER PLACE,TORONTO,ONTARIO,M9A0A3,KURTIS HORVAT,REALTY ONE GROUP FLAGSHIP,"$524,900",43.6442618,79.5288572
6/24/2024,1001 - 50 MCCAUL STREET,TORONTO,ONTARIO,M5T0B6,TRUMAN CHEN,BAY STREET INTEGRITY REALTY INC.,"$719,000",43.6518066,79.3906374
02/07/2024,1001 - 8 TIPPETT ROAD,TORONTO,ONTARIO,M3H0E7,SHAFIQ SEDIQZADAH,CENTURY 21 PERCY FULTON LTD.,"$495,000",43.7324138,79.4468862
25/06/2024,1002 - 1 FOREST HILL ROAD,TORONTO,ONTARIO,M4V1R1,BARRY COHEN,RE/MAX REALTRON BARRY COHEN HOMES INC.,"$9,995,000",43.6869117,79.4030105
27/06/2024,1002 - 1121 BAY STREET,TORONTO,ONTARIO,M5S2B3,SVETLANA CHKARBOUL,ROYAL LEPAGE YOUR COMMUNITY REALTY,"$635,000",43.6679864,79.3885486
6/26/2024,1002 - 127 QUEEN STREET E,TORONTO,ONTARIO,M5C1S3,JOHN O'CONNOR,CORE ASSETS REAL ESTATE,"$514,500",43.6534879,79.3737616
6/25/2024,1002 - 1328 BIRCHMOUNT ROAD,TORONTO,ONTARIO,M1R0B6,MAHAA THEVAMURALY,CENTURY 21 INNOVATIVE PRIME HOME REALTY,"$739,000",43.7485378,79.2861688
03/07/2024,1002 - 155 BEECROFT ROAD,TORONTO,ONTARIO,M2N7C6,JULIE RUTHERFORD,KELLER WILLIAMS REFERRED URBAN REALTY,"$579,000",43.7655092,79.4140924
03/07/2024,1002 - 19 SINGER COURT,TORONTO,ONTARIO,M2K0B2,ELHAM SHAHBAN,IPRO REALTY LTD.,"$549,000",43.7687006,79.3700901
03/07/2024,1002 - 222 THE ESPLANADE STREET,TORONTO,ONTARIO,M5A4M8,MARC C. TRUMPHOUR,REAL ESTATE HOMEWARD,"$599,900",43.6497298,79.3652996
6/26/2024,1002 - 225 MERTON STREET,TORONTO,ONTARIO,M4S3H1,FRANK LEO,RE/MAX WEST REALTY INC.,"$625,000",43.6971818,79.3896853
02/07/2024,1002 - 235 GRANDRAVINE DRIVE,TORONTO,ONTARIO,M3N1J2,TANYA PODOLSKAIA,RIGHT AT HOME REALTY,"$359,900",43.748583,79.5059285
6/26/2024,1002 - 25 NEIGHBOURHOOD LANE,TORONTO,ONTARIO,M8Y0C4,KATELYN GARVEY,ROYAL LEPAGE/J & D DIVISION,"$1,045,000",43.6382223,79.489225
03/07/2024,1002 - 38 LEE CENTRE DRIVE,TORONTO,ONTARIO,M1H3J7,RAKESH TAAK,CENTURY 21 LEADING EDGE REALTY INC.,"$529,900",43.7817588,79.2466125
25/06/2024,1002 SPADINA ROAD,TORONTO,ONTARIO,M5N2M6,MICHAEL ULITSKY,ROYAL LEPAGE YOUR COMMUNITY REALTY,"$2,988,000",43.7036188,79.4188152
03/07/2024,1003 - 10 GIBBS ROAD,TORONTO,ONTARIO,M9B0E2,JONATHAN ZADEGAN,RE/MAX HALLMARK ARI ZADEGAN GROUP REALTY,"$539,900",43.6387355,79.5580654
27/06/2024,1003 - 234 SIMCOE STREET,TORONTO,ONTARIO,M5T1T4,TOM HE,DREAM HOME REALTY INC.,"$719,900",43.6534287,79.3890647
6/29/2024,1003 - 255 VILLAGE GREEN SQUARE,TORONTO,ONTARIO,M1S0L7,CHARLES LI,"T-ONE GROUP REALTY INC.,","$599,000",43.7796324,79.2827329
03/07/2024,1003 - 2628 MCCOWAN ROAD,TORONTO,ONTARIO,M1S5J8,MAJIBUR RAHMAN MOLLAH,RE/MAX REALTRON REALTY INC.,"$550,000",43.8069337,79.2667061
27/06/2024,1003 - 30 GIBBS ROAD,TORONTO,ONTARIO,M9B0E4,PETER TU LAM,TRADEWORLD REALTY INC,"$498,000",43.6392239,79.5596305
03/07/2024,1003 - 3091 DUFFERIN STREET,TORONTO,ONTARIO,M6A0C4,ABBY YEN,CENTURY 21 MYPRO REALTY,"$527,800",43.7153136,79.454618
29/06/2024,1003 - 32 CAMDEN STREET,TORONTO,ONTARIO,M5V0G4,DAWN S. PEACE,RE/MAX TWIN CITY REALTY INC.,"$799,900",43.6472244,79.397228
02/07/2024,1003 - 32 TROLLEY CRESCENT,TORONTO,ONTARIO,M5A0E9,SARFRAZ AKBER JUMA,RIGHT AT HOME REALTY,"$485,000",43.6567221,79.3552819
03/07/2024,1003 - 33 UNIVERSITY AVENUE,TORONTO,ONTARIO,M5J2S7,JUSTIN BREGMAN,RARE REAL ESTATE,"$829,888",43.6462538,79.3835997
02/07/2024,1003 - 3390 WESTON ROAD,TORONTO,ONTARIO,M9M2X3,GIUSEPPE FLAMMIA,ENGEL & VOLKERS TORONTO CENTRAL,"$499,900",43.7491874,79.5427005
25/06/2024,1003 - 50 THOMAS RILEY ROAD,TORONTO,ONTARIO,M9B0C1,STANLEY WONG,HOMELIFE FRONTIER REALTY INC.,"$1,238,900",43.6338301,79.5415913
03/07/2024,1003 - 60 TANNERY ROAD,TORONTO,ONTARIO,M5A0S8,OLESSIA SOLDATOV,FOREST HILL REAL ESTATE INC.,"$1,165,000",43.6537041,79.3552937
02/07/2024,1003E - 36 LISGAR STREET,TORONTO,ONTARIO,M6J3G2,COLIN CAMPBELL,SOUTHCOAST REALTY LIMITED,$1,43.6419929,79.4235282
6/24/2024,1004 - 1 CARDIFF ROAD,TORONTO,ONTARIO,M4P0G2,SAM ALLAN MCDADI,SAM MCDADI REAL ESTATE INC.,"$1,039,000",43.71032,79.3831191
27/06/2024,1004 - 25 NEIGHBOURHOOD LANE,TORONTO,ONTARIO,M8Y0C3,TAYA DAY,HARVEY KALLES REAL ESTATE LTD.,"$980,000",43.6382223,79.489225
02/07/2024,1004 - 2800 WARDEN AVENUE,TORONTO,ONTARIO,M1W3Z6,STEVE ROGERS,RIGHT AT HOME REALTY,"$399,900",43.7957187,79.3156914
03/07/2024,1004 - 3 ROWNTREE ROAD,TORONTO,ONTARIO,M9V5G8,GEOFFREY W. FULTON,KELLER WILLIAMS REFERRED URBAN REALTY,"$575,000",43.7504383,79.5817718
6/24/2024,1004 - 3100 KEELE STREET,TORONTO,ONTARIO,M3M2H4,ELIE RIZK,CENTURY 21 PERCY FULTON LTD.,"$489,000",43.7400361,79.4856773
02/07/2024,1004 - 32 TROLLEY CRESCENT,TORONTO,ONTARIO,M5A0E8,TAMAS TOROK,"INTERNATIONAL REALTY FIRM, INC.","$439,000",43.6567563,79.3552266
03/07/2024,1004 - 551 THE WEST MALL,TORONTO,ONTARIO,M9C1G7,SABINE EL GHALI,IPRO REALTY LTD.,"$565,000",43.6518401,79.5697714
6/24/2024,1004 - 56 FOREST MANOR ROAD,TORONTO,ONTARIO,M2J1M6,KYLE YANG,BAY STREET INTEGRITY REALTY INC.,"$3,050/MONTHLY",43.7733449,79.3450628
03/07/2024,1004 - 716 THE WEST MALL,TORONTO,ONTARIO,M9C4X6,GARIMA KAUSHAL,ACCSELL REALTY INC.,"$590,000",43.6565663,79.5701065
25/06/2024,1004 - 8 WIDMER STREET,TORONTO,ONTARIO,M5V0W6,ERWIN CHOI,BAY STREET GROUP INC.,"$668,000",43.6467607,79.3917958
02/07/2024,1005 - 100 DALHOUSIE STREET,TORONTO,ONTARIO,M5B0C7,RUBINA DHAMI,HARLOWE REALTY CORPORATION,"$475,000",43.6564615,79.3767046
02/07/2024,1005 - 188 FAIRVIEW MALL DRIVE S,TORONTO,ONTARIO,M2J4T1,DAVINA DEN TSENG,CENTURY 21 KENNECT REALTY,"$428,000",43.7802735,79.3413265
03/07/2024,1005 - 200 SACKVILLE STREET,TORONTO,ONTARIO,M5A0C4,HANI AZAM,IPRO REALTY LTD.,"$574,990",43.6590809,79.3629156
6/24/2024,1005 - 228 BONIS AVENUE,TORONTO,ONTARIO,M1T3W4,AUGUSTINE YUK YU LAU,LANDSTARS 360 REALTY INC.,"$688,800",43.7866791,79.2910311
25/06/2024,1005 - 25 NEIGHBOURHOOD LANE,TORONTO,ONTARIO,M8Y0C4,CASSANDRA PACITTO,ENGEL & VOLKERS TORONTO CITY,"$949,900",43.6381568,79.4892088
02/07/2024,1005 - 2737 KEELE STREET,TORONTO,ONTARIO,M3M2E9,OLIVIA ZHOU,RE/MAX WEST REALTY INC.,"$409,000",43.7257993,79.4806034
27/06/2024,1005 - 3391 BLOOR STREET,TORONTO,ONTARIO,M8X1G3,MANNY ANAGNOSTAKIS,WESTVIEW REALTY INC.,"$568,000",43.6442533,79.5238525
03/07/2024,1005 - 500 SHERBOURNE STREET,TORONTO,ONTARIO,M4X1L1,SUSAN GUCCI,ROYAL LEPAGE SIGNATURE SUSAN GUCCI REALTY,"$569,000",43.6679021,79.3756819
29/06/2024,1005 - 5180 YONGE STREET,TORONTO,ONTARIO,M2N0K5,SUNYOUNG PARK,SELLING TORONTO REAL ESTATE INC.,"$875,000",43.7704653,79.4138309
25/06/2024,1005 - 99 JOHN STREET,TORONTO,ONTARIO,M5V0S6,STANLEY WONG,HOMELIFE FRONTIER REALTY INC.,"$1,404,900",43.6475245,79.3899312
03/07/2024,1006 - 100 MORNELLE COURT,TORONTO,ONTARIO,M1E4X2,AMIR MIZRAHI,ROYAL LEPAGE YOUR COMMUNITY REALTY,"$599,900",43.7872772,79.1950138
03/07/2024,1006 - 25 TELEGRAM MEWS,TORONTO,ONTARIO,M5V3Z1,AMIT DHAWAN,CENTURY 21 ATRIA REALTY INC.,"$539,000",43.6411454,79.3942451
04/07/2024,1006 - 275 YORKLAND ROAD,TORONTO,ONTARIO,M2J0B4,HUBERT LEE,LANDPOWER REAL ESTATE LTD.,"$579,900",43.7746398,79.3369485
03/07/2024,1006 - 3077 WESTON ROAD,TORONTO,ONTARIO,M9M3A1,HIEP NGUYEN,RIGHT AT HOME REALTY,"$520,000",43.7324317,79.5369303
6/24/2024,1006 - 3091 DUFFERIN STREET,TORONTO,ONTARIO,M6A0C4,RUBY THAMBIAH,RE/MAX REALTY SERVICES INC.,"$519,900",43.7153136,79.454618
25/06/2024,1006 - 357 KING STREET W,TORONTO,ONTARIO,M5V0S7,SELENA ZHANG,RE/MAX REALTRON REALTY INC.,"$759,999",43.6457762,79.3925063
02/07/2024,1006 - 50 LOTHERTON PATHWAY,TORONTO,ONTARIO,M6B2G8,CINA MARQUES,ROYAL LEPAGE SUPREME REALTY,"$430,000",43.7058771,79.4670119
04/07/2024,1006 - 85 SKYMARK DRIVE,TORONTO,ONTARIO,M2H3P2,ANDRE LEVY-BENCHETON,FOREST HILL REAL ESTATE INC.,"$1,079,000",43.7961458,79.3539331
27/06/2024,1006 - 942 YONGE STREET,TORONTO,ONTARIO,M4W3S8,ALINA SPEKTOR,RE/MAX EXPERTS,"$669,000",43.6745659,79.3886898
27/06/2024,1007 - 10 KENNETH AVENUE,TORONTO,ONTARIO,M2N6K6,MARK OULAHEN,OULAHEN TEAM REALTY INC.,"$639,000",43.7639664,79.4057714
6/24/2024,1007 - 11 WELLESLEY STREET W,TORONTO,ONTARIO,M4Y0G4,FANNY SIU HUNG KWAN,LANDPOWER REAL ESTATE LTD.,"$765,000",43.6645977,79.3852242
27/06/2024,1007 - 15 BEVERLEY STREET,TORONTO,ONTARIO,M5T1X8,CHRISTOPHER ANDREW BIBBY,RE/MAX HALLMARK BIBBY GROUP REALTY,"$685,000",43.6504285,79.3922418
29/06/2024,1007 - 15 WINDERMERE AVENUE,TORONTO,ONTARIO,M6S5A2,MICHELLE FUSCO,KELLER WILLIAMS EMPOWERED REALTY,"$739,000",43.6369422,79.4688746
03/07/2024,1007 - 251 MANITOBA STREET,TORONTO,ONTARIO,L4B3K6,SALWA ANWARALI,EXP REALTY,"$549,000",43.6238372,79.4893647
29/06/2024,1007 - 320 RICHMOND STREET E,TORONTO,ONTARIO,M5A1P9,DAMIRIS MORO,RE/MAX WEST REALTY INC.,"$2,350/MONTHLY",43.6535819,79.3687903
04/07/2024,1007 - 400 MCLEVIN AVENUE,TORONTO,ONTARIO,M1B5J4,VICTOR TU,IPRO REALTY LTD.,"$2,500/MONTHLY",43.8098877,79.2219836
6/25/2024,1007 - 4727 SHEPPARD AVENUE E,TORONTO,ONTARIO,M1S5B3,PETER LUO,RE/MAX REALTRON REALTY INC.,"$672,880",43.7894966,79.2535792
29/06/2024,1007 - 49 EAST LIBERTY STREET,TORONTO,ONTARIO,M6K0B2,NIXON LAU,LIVING REALTY INC.,"$709,000",43.63883,79.411635
04/07/2024,1007 - 761 BAY STREET,TORONTO,ONTARIO,M5G2R2,DARYL KING,RE/MAX HALLMARK REALTY LTD.,"$589,900",43.6596493,79.3849721
25/06/2024,1008 - 1 BLOOR STREET E,TORONTO,ONTARIO,M4W1A9,MARTIN GUO,HOMELIFE LANDMARK REALTY INC.,"$939,900",43.6701587,79.3862462
29/06/2024,1008 - 1 PEMBERTON AVENUE,TORONTO,ONTARIO,M2M4L9,WAYNE XU,BAY STREET GROUP INC.,"$749,000",43.7808535,79.4142091
03/07/2024,1008 - 120 HARRISON GARDEN BOULEVARD,TORONTO,ONTARIO,M2N0H1,RAGU BALASUBRAMANIYAM,RE/MAX COMMUNITY REALTY INC.,"$579,000",43.7580581,79.4033368
04/07/2024,1008 - 120 HOMEWOOD AVENUE,TORONTO,ONTARIO,M4Y2J3,MICHAEL SWITZER,FOREST HILL REAL ESTATE INC.,"$669,000",43.6669945,79.3763662
02/07/2024,1008 - 1410 DUPONT STREET,TORONTO,ONTARIO,M6H0B6,JOHN MARTINO,NEW ERA REAL ESTATE,"$489,000",43.6671028,79.4474491
03/07/2024,1008 - 153 BEECROFT ROAD,TORONTO,ONTARIO,M2N7C5,VINCE ESPOSITO,REAL BROKER ONTARIO LTD.,"$538,788",43.7654639,79.4143842
27/06/2024,1008 - 21 CARLTON STREET,TORONTO,ONTARIO,M5B1L2,RAVI SIRISENA,CENTURY 21 MILLENNIUM INC.,"$488,888",43.6612263,79.3820935
03/07/2024,1008 - 3131 BRIDLETOWNE CIRCLE,TORONTO,ONTARIO,M1W2S9,STEPHEN MOORE,CENTURY 21 LEADING EDGE REALTY INC.,"$599,000",43.7989328,79.3204451
03/07/2024,1008 - 32 TROLLEY CRESCENT,TORONTO,ONTARIO,M5A0E8,LENA ZHOU,RE/MAX ELITE REAL ESTATE,"$529,000",43.6567563,79.3552266
27/06/2024,1008 - 8 TELEGRAM MEWS,TORONTO,ONTARIO,M5V3Z5,KISHAN PATEL,SAVE MAX ACHIEVERS REALTY,"$549,000",43.6404522,79.3947705
02/07/2024,1008 - 8 WELLESLEY STREET E,TORONTO,ONTARIO,M4Y3B2,EVAN JIANG,CENTURY 21 LEADING EDGE REALTY INC.,"$450,000",43.665122,79.3842874
6/24/2024,1009 - 1346 DANFORTH ROAD,TORONTO,ONTARIO,M1J0A9,JANICE KAR LI LAU,SUPERSTARS REALTY LTD.,"$448,000",43.7439749,79.2470112
02/07/2024,1009 - 1420 DUPONT STREET,TORONTO,ONTARIO,M6H0C2,JOEL COOPER,SAGE REAL ESTATE LIMITED,"$484,500",43.6667421,79.4482712
03/07/2024,1009 - 270 PALMDALE DRIVE,TORONTO,ONTARIO,M1T3N8,ARMEN KRIKORIAN,BIG CITY REALTY INC.,"$539,800",43.7766077,79.3109903
03/07/2024,1009 - 28 OLIVE AVENUE,TORONTO,ONTARIO,M2N4N5,STELLA DING,HOMELIFE LANDMARK REALTY INC.,"$558,000",43.7793207,79.4137118
03/07/2024,1009 - 33 MILL STREET,TORONTO,ONTARIO,M5A3R3,ISAAC QUAN,LIVING REALTY INC.,"$579,000",43.6503605,79.360919
03/07/2024,1009 - 5 OLD SHEPPARD AVENUE,TORONTO,ONTARIO,M2J4K3,THOMAS CUNG,CENTURY 21 ATRIA REALTY INC.,"$549,990",43.7772653,79.336843
03/07/2024,1009 - 543 RICHMOND STREET W,TORONTO,ONTARIO,M5V0W9,LINDSAY ELIZABETH LEDREW,HARLOWE REALTY CORPORATION,"$589,990",43.6466334,79.4016919
6/26/2024,1009 - 5500 YONGE STREET,TORONTO,ONTARIO,M2N7L1,MIKE CRAPPER,DIGI,"$579,000",43.7782504,79.4154722
04/07/2024,1009 - 69 LYNN WILLIAMS STREET,TORONTO,ONTARIO,M6K3R6,HEIDI KURIEN,MIDNIGHT KISMET REAL ESTATE,"$2,250/MONTHLY",43.6388481,79.4155571
02/07/2024,101 - 1 NEIGHBOURHOOD LANE,TORONTO,ONTARIO,M8Y0C2,JAMES MILONAS,THE AGENCY,"$498,000",43.6377286,79.4876051
29/06/2024,101 - 1145 LOGAN AVENUE,TORONTO,ONTARIO,M4K3G9,EDDIE DONAN,RE/MAX HALLMARK YORK GROUP REALTY LTD.,"$499,800",43.6888149,79.3531341
04/07/2024,101 - 12 REAN DRIVE,TORONTO,ONTARIO,M2K3C6,NICK PASCHOS,EXP REALTY,"$589,900",43.7666713,79.3832156
03/07/2024,101 - 2015 SHEPPARD AVENUE E,TORONTO,ONTARIO,M2J0B3,ROSE H. LAI,RCL REALTY INC.,"$539,900",43.7754105,79.3374894
03/07/2024,101 - 22 WESTERN BATTERY ROAD,TORONTO,ONTARIO,M6K3N9,MICHAEL OUZAS,ROYAL LEPAGE SIGNATURE REALTY,"$559,900",43.6398366,79.4118059
02/07/2024,101 - 323 KINGSTON ROAD,TORONTO,ONTARIO,M4L1T8,CONNIE LYN LEESON,RE/MAX WEST REALTY INC.,"$499,900",43.6745006,79.3069215
02/07/2024,101 - 665 KENNEDY ROAD,TORONTO,ONTARIO,M1K5E2,BOOBALAN SAMINATHAN,RE/MAX ACE REALTY INC.,"$434,000",43.7260386,79.2649208
25/06/2024,101 - 90 SHERBOURNE STREET,TORONTO,ONTARIO,M5A2R1,FARAH QANUN,RE/MAX METROPOLIS REALTY,"$899,000",43.6528527,79.3692322
25/06/2024,101 DUNLOE ROAD,TORONTO,ONTARIO,M5P2T7,JANE ZHANG,SOTHEBY'S INTERNATIONAL REALTY CANADA,"$13,990,000",43.6964367,79.4135718
6/24/2024,101 PIPERBROOK CRESCENT,TORONTO,ONTARIO,M1E5H1,TANZEEB ZAMAN,RE/MAX CROSSROADS REALTY INC.,"$1,115,000",43.7660609,79.1797577
04/07/2024,101 RAINSFORD ROAD,TORONTO,ONTARIO,M4L3N8,CHRISTY WATT,KELLER WILLIAMS ADVANTAGE REALTY,"$1,399,000",43.6721754,79.308198
27/06/2024,101 RYKERT CRESCENT,TORONTO,ONTARIO,M4G2T4,CAILEY HEAPS,ROYAL LEPAGE REAL ESTATE SERVICES HEAPS ESTRIN TEAM,"$4,295,000",43.7166708,79.3572821
04/07/2024,101 SOUTH EDGELY AVENUE,TORONTO,ONTARIO,M1N3L2,MARY-ANNE MORKEL,RE/MAX ROUGE RIVER REALTY LTD.,"$950,000",43.7016948,79.262295
02/07/2024,101 SUBWAY CRESCENT UNIT# 1808,TORONTO,ONTARIO,M9B6K4,TANSIE BARTOZZI,REMAX REALTY SPECIALISTS INC MILLCREEK DRIVE,"$439,800",43.63493097,79.53948696
02/07/2024,1010 - 100 PRUDENTIAL DRIVE,TORONTO,ONTARIO,M1P4V4,SONIA SAMUEL,RE/MAX REALTRON REALTY INC.,"$469,000",43.7495943,79.2669008
03/07/2024,1010 - 1420 DUPONT STREET,TORONTO,ONTARIO,M6H0C2,WHITNEY GROVE,ROYAL LEPAGE/J & D DIVISION,"$559,000",43.6665294,79.4482351
6/24/2024,1010 - 286 MAIN STREET,TORONTO,ONTARIO,M4C4X4,BRANDT JUSTIN MORRIS,BOSLEY REAL ESTATE LTD.,"$659,000",43.6875543,79.3016408
6/24/2024,1010 - 2A CHURCH STREET,TORONTO,ONTARIO,M5E0E1,ALEXANDER GASENKO,RIGHT AT HOME REALTY INVESTMENTS GROUP,"$3,500/MONTHLY",43.6470768,79.3733906
27/06/2024,1010 - 426 UNIVERSITY AVENUE,TORONTO,ONTARIO,M5G1S9,LINDA BERTUCCI,RIGHT AT HOME REALTY,"$645,000",43.653957,79.3886581
25/06/2024,1010 - 5 ST JOSEPH STREET,TORONTO,ONTARIO,M4Y0B6,CECILIA HE,CENTURY 21 KING'S QUAY REAL ESTATE INC.,"$1,050,000",43.6657586,79.3856777
02/07/2024,1010 - 8 SILVERBELL GROVE,TORONTO,ONTARIO,M1B4Z3,LUKE CHI WAH KONG,HOMELIFE CULTURELINK REALTY INC.,"$399,000",43.8048615,79.2166971
03/07/2024,1011 - 10 TAPSCOTT ROAD,TORONTO,ONTARIO,M1B3L9,MERISA MEI MEI PANG,LANDPOWER REAL ESTATE LTD.,"$519,900",43.8059752,79.219104
03/07/2024,1011 - 275 BAMBURGH CIRCLE,TORONTO,ONTARIO,M1W3X4,EDITH SIU-MEI LEE,LIVING REALTY INC.,"$579,000",43.8135945,79.323231
6/24/2024,1011 - 3025 FINCH AVENUE W,TORONTO,ONTARIO,M9M0A2,GEMMA PASCUAL,RE/MAX CROSSROADS REALTY INC.,"$638,800",43.7473123,79.5636099
27/06/2024,1011 - 410 MCLEVIN AVENUE,TORONTO,ONTARIO,M1B5J5,JOSEF SAIF,RE/MAX METROPOLIS REALTY,"$549,900",43.8096865,79.2212853
25/06/2024,1011 - 55 MERCER STREET,TORONTO,ONTARIO,M5V3W2,MICHAEL CHEN,GALAXY REALTY INC.,"$899,999",43.6452979,79.3917205
03/07/2024,1011 - 551 THE WEST MALL,TORONTO,ONTARIO,M9C1G7,KAREN PATRICIA WHERRY,CHESTNUT PARK REAL ESTATE LIMITED,"$599,900",43.6518401,79.5697714
25/06/2024,1011 - 70 QUEEN WHARF ROAD,TORONTO,ONTARIO,M5V0J2,SAJAN SHANMUGANATHAN,RE/MAX REALTRON REALTY INC.,"$709,900",43.6385212,79.3994545
04/07/2024,1012 - 125 REDPATH AVENUE E,TORONTO,ONTARIO,M4P1J5,WAYNE WONG,RE/MAX ELITE REAL ESTATE,"$2,100/MONTHLY",43.7076393,79.3924125
03/07/2024,1012 - 2464 WESTON ROAD,TORONTO,ONTARIO,M9N2A2,MARK BAROUDI,BAROUDI REALTY,"$529,999",43.7081994,79.5341446
25/06/2024,1012 - 319 JARVIS STREET,TORONTO,ONTARIO,M5B2C2,JIAN J. QIU,HOMELIFE LANDMARK REALTY INC.,"$969,900",43.6598079,79.3753496
02/07/2024,1012 - 5101 DUNDAS STREET W,TORONTO,ONTARIO,M9A5G8,LAKHWINDER SINGH LUTHERA,FORTUNE HOMES REALTY INC.,"$499,900",43.6449121,79.5317338
03/07/2024,1012 - 600 FLEET STREET,TORONTO,ONTARIO,M5V1B7,MICHAEL PAPIS,ROYAL LEPAGE SIGNATURE REALTY,"$599,900",43.6368407,79.40026
29/06/2024,1013 - 251 MANITOBA STREET,TORONTO,ONTARIO,M8Y4G9,JESSIE BANWAIT,EXP REALTY,"$599,900",43.6238372,79.4893647
03/07/2024,1013 - 34 TUBMAN AVENUE W,TORONTO,ONTARIO,M5A0R2,JOSEPH WU,CENTURY 21 KENNECT REALTY,"$569,000",43.6612119,79.359668
29/06/2024,1013 - 7 BISHOP AVENUE,TORONTO,ONTARIO,M2M4J4,ARA NAM,RETREND REALTY LTD,"$518,000",43.781883,79.4144826
03/07/2024,1014 - 175 HILDA AVENUE,TORONTO,ONTARIO,M2M1V8,MARINA ZUBIASHVILI,ARCREALTY INC.,"$679,000",43.7947059,79.4265177
03/07/2024,1014 - 85 BLOOR STREET E,TORONTO,ONTARIO,M4W3Y1,SEAN DONNELLY,KELLER WILLIAMS REFERRED URBAN REALTY,"$535,000",43.6702331,79.3843476
03/07/2024,1015 - 100 WINGARDEN COURT,TORONTO,ONTARIO,M1B2P4,JEGAN PACKIYANATHAN,RE/MAX REALTRON BLUE FORCE REALTY,"$549,000",43.8113979,79.2260673
02/07/2024,1015 - 710 HUMBERWOOD BOULEVARD,TORONTO,ONTARIO,M9W7J5,AMIR REHMANI,MODERN SOLUTION REALTY INC.,"$494,999",43.7247822,79.6160393
03/07/2024,1015 - 816 LANSDOWNE AVENUE,TORONTO,ONTARIO,M6H4K6,JOE G. MACHADO,HOMELIFE REGIONAL REALTY LTD.,"$580,000",43.6656823,79.4475781
04/07/2024,1015W - 36 LISGAR STREET,TORONTO,ONTARIO,M6J3G2,JACQUIE OTHEN,RE/MAX PRIME PROPERTIES,"$580,000",43.6419929,79.4235282
02/07/2024,1016 - 2 GLAMORGAN AVENUE,TORONTO,ONTARIO,M1P2M8,LATOYA GORDON,EXP REALTY,"$490,000",43.7694914,79.2834037
03/07/2024,1016 - 543 RICHMOND STREET W,TORONTO,ONTARIO,M5V0W9,LINDSAY ELIZABETH LEDREW,HARLOWE REALTY CORPORATION,"$599,990",43.6466334,79.4016919
03/07/2024,1016 - 60 SHUTER STREET,TORONTO,ONTARIO,M5B0B7,DONNA MAN CHING MAK,LIVING REALTY INC.,"$599,900",43.6550609,79.3760574
04/07/2024,1016 - 711 BAY STREET,TORONTO,ONTARIO,M5G2J8,NATALYA BRESKIN,RIGHT AT HOME REALTY,"$3,700/MONTHLY",43.6589025,79.3845279
03/07/2024,1017 - 1787 ST. CLAIR AVE AVENUE W,TORONTO,ONTARIO,M6N0B7,HAMID REZA SAFIPOOR,RE/MAX HALLMARK REALTY LTD.,"$598,800",43.6733272,79.462556
25/06/2024,1018 - 118 MERCHANTS' WHARF,TORONTO,ONTARIO,M5A0L3,KAIVE WONG,AXON CAPITAL REALTY ADVISORS INC.,"$3,200,000",43.6454226,79.3613552
03/07/2024,1018 - 160 VANDERHOOF AVENUE,TORONTO,ONTARIO,M4G0B7,LOUIS CHENG,RE/MAX ATRIUM HOME REALTY,"$549,000",43.7143527,79.3528759
04/07/2024,1018 - 31 TIPPETT ROAD,TORONTO,ONTARIO,M3H0C8,SHIV SHARMA,RE/MAX REALTY SPECIALISTS INC.,"$599,900",43.7335125,79.4460849
6/25/2024,1019 - 10 GUILDWOOD PARKWAY,TORONTO,ONTARIO,M1E5B5,DONNA TAYLOR,SLAVENS & ASSOCIATES REAL ESTATE INC.,"$910,000",43.7499647,79.2048121
02/07/2024,1019 - 38 MONTE KWINTER COURT,TORONTO,ONTARIO,M3H0E2,DANISH BRAR,CITI BROKERS REALTY INC.,"$450,000",43.7335675,79.4488309
03/07/2024,102 - 10 PARKWAY FOREST DRIVE,TORONTO,ONTARIO,M2J1L3,OLSEN GJECI,RE/MAX REAL ESTATE CENTRE INC.,"$599,000",43.7699559,79.3454596
27/06/2024,102 - 130 CANON JACKSON DRIVE,TORONTO,ONTARIO,M6M0B7,KARINA ESKANDARY,UNION CAPITAL REALTY,"$575,000",43.6977416,79.4736004
04/07/2024,102 - 2121 LAKESHORE BOULEVARD W,TORONTO,ONTARIO,M8V4E9,MICHAEL PHINNEY,ROYAL LEPAGE REAL ESTATE SERVICES PHINNEY REAL ESTATE,"$699,000",43.6274471,79.4783741
02/07/2024,102 - 2603 BATHURST STREET,TORONTO,ONTARIO,M6B2Z6,STEVEN C. SWITZER,FOREST HILL REAL ESTATE INC.,"$398,000",43.7078317,79.4264305
6/26/2024,102 - 3734 ST CLAIR AVENUE E,TORONTO,ONTARIO,M1M1T7,KEN GRIEVE,REAL ESTATE HOMEWARD,"$499,900",43.7207726,79.2439255
02/07/2024,102 - 4198 DUNDAS STREET W,TORONTO,ONTARIO,M8X1Y6,MICHAEL PHINNEY,ROYAL LEPAGE REAL ESTATE SERVICES PHINNEY REAL ESTATE,"$479,900",43.6609657,79.5110728
03/07/2024,102 - 5765 YONGE STREET,TORONTO,ONTARIO,M2M4H9,HITESH JAGS JAGATIA,PROPERTY.CA INC.,"$550,000",43.7831358,79.415217
04/07/2024,102 - 5765 YONGE STREET,TORONTO,ONTARIO,M2M4H9,HITESH JAGS JAGATIA,PROPERTY.CA INC.,"$548,888",43.7831358,79.415217
03/07/2024,102 - 600 EGLINTON AVENUE,TORONTO,ONTARIO,M4P1P3,JESSICA SPODEK,BOSLEY REAL ESTATE LTD.,"$589,000",43.7109044,79.379201
04/07/2024,102 - 8 FIELDWAY ROAD,TORONTO,ONTARIO,M8Z0C3,ANDREW ANTHONY PAOLONE,STRATA REAL ESTATE,"$629,900",43.6427011,79.5273895
6/24/2024,102 DE VERE GARDENS,TORONTO,ONTARIO,M5M3G2,STEPHEN T MILIC,HARVEY KALLES REAL ESTATE LTD.,"$2,549,000",43.7412287,79.4138796
6/24/2024,102 SPRINGHOUSE SQUARE,TORONTO,ONTARIO,M1W2X1,TERRY LEUNG,CENTURY 21 KING'S QUAY REAL ESTATE INC.,"$729,000",43.8058206,79.3284873
6/24/2024,1021 - 18 LAIDLAW STREET,TORONTO,ONTARIO,M6K1E6,SEJAL ATTWALA,RE/MAX REALTY SPECIALISTS INC.,"$799,999",43.64027,79.42677
25/06/2024,1021 - 28 EASTERN AVENUE,TORONTO,ONTARIO,M5A1H5,SHARON JULIA EDWARDS,BAKER REAL ESTATE INCORPORATED,"$1,039,990",43.653272,79.359831
03/07/2024,1021 - 3100 KEELE STREET,TORONTO,ONTARIO,M3M0E1,THOMAS MARKAKOS,RESIDENTIAL DEVELOPMENT SERVICES INC.,"$535,000",43.7400361,79.4856773
03/07/2024,1021 - 460 ADELAIDE STREET E,TORONTO,ONTARIO,M5A1N6,ROSE NGUYEN,HARLOWE REALTY CORPORATION,"$599,000",43.6528922,79.3667341
03/07/2024,1021 - 50 POWER STREET,TORONTO,ONTARIO,M5A0V3,DAN PLOWMAN,DAN PLOWMAN TEAM REALTY INC.,"$589,900",43.6543821,79.3630452
03/07/2024,1022 - 33 HARBOUR SQUARE,TORONTO,ONTARIO,M5J2G2,VICTOR ALVAREZ,RE/MAX CONDOS PLUS CORPORATION,"$539,900",43.6401365,79.3761794
03/07/2024,1027 - 30 TRETTI WAY,TORONTO,ONTARIO,M3H0E3,HEIZEL JEYAREDSAGATHAS,HOMELIFE/FUTURE REALTY INC.,"$599,000",43.7330693,79.4485317
02/07/2024,1028 - 100 MORNELLE COURT,TORONTO,ONTARIO,M1E4X2,BAS PARAMANATHAN,CENTURY 21 TITANS REALTY INC.,"$498,000",43.7872772,79.1950138
03/07/2024,103 - 10 TAPSCOTT ROAD,TORONTO,ONTARIO,M1B3L9,DEXTER KING,RE/MAX COMMUNITY REALTY INC.,"$514,999",43.8059594,79.2190998
27/06/2024,103 - 110 MARINE PARADE DRIVE,TORONTO,ONTARIO,M8V0A3,JENNIFER LUU,ROYAL LEPAGE SIGNATURE REALTY,"$1,099,999",43.6252167,79.4776243
03/07/2024,103 - 1785 EGLINTON AVENUE E,TORONTO,ONTARIO,M4A2Y6,JELILA GHARBI,CENTURY 21 LEADING EDGE REALTY INC.,"$599,999",43.7245531,79.3070582
6/26/2024,103 - 185 BONIS AVENUE,TORONTO,ONTARIO,M1T0A4,ZHUO LI,HC REALTY GROUP INC.,"$488,000",43.7858012,79.2923913
04/07/2024,103 - 21 SCOLLARD STREET,TORONTO,ONTARIO,M5R1G1,PATRICK JOHN LOWNEY,REAL ESTATE HOMEWARD,"$499,000",43.672344,79.388501
03/07/2024,103 - 85 THE DONWAY W,TORONTO,ONTARIO,M3C0L9,JONATHAN MA,CENTURY 21 ATRIA REALTY INC.,"$598,000",43.7331267,79.3461438
27/06/2024,103 - 90 SHERBOURNE STREET,TORONTO,ONTARIO,M5A2R1,CHRISTOPHER HUGH BROWN,KAIZEN CAPITAL REALTY PARTNERS,"$799,000",43.6528527,79.3692322
29/06/2024,103 BERNICE CRESCENT,TORONTO,ONTARIO,M6N1W7,ANTONIO (TONY) CARNOVALE,RE/MAX WEST REALTY INC.,"$1,299,000",43.6668051,79.4987613
29/06/2024,103 LAURA ROAD E,TORONTO,ONTARIO,M3N1Z8,SUNNY ADODO,HOMELIFE WOODBINE REALTY INC.,"$959,900",43.7421881,79.5211036
25/06/2024,103 OLD COLONY ROAD,TORONTO,ONTARIO,M2L2K3,BARRY COHEN,RE/MAX REALTRON BARRY COHEN HOMES INC.,"$25,000,000",43.7588051,79.374566
6/26/2024,103 THE QUEENSWAY UNIT# 405,TORONTO,ONTARIO,M6S5B3,JORDAN CLARK,RE/MAX GARDEN CITY - JORDAN CLARK,"$799,900",43.636025,79.470162
03/07/2024,1031 - 100 MORNELLE COURT,TORONTO,ONTARIO,M1E4X2,SHEREEN BADAWI,RE/MAX ACE REALTY INC.,"$520,000",43.7872772,79.1950138
27/06/2024,1033 - 15 MERCHANTS' WHARF,TORONTO,ONTARIO,M5A0N8,PETER Q. DOU,GOLDEN HOUSE REALTY INC.,"$849,000",43.6452569,79.3642909
03/07/2024,1034 - 251 JARVIS STREET E,TORONTO,ONTARIO,M5A4R6,FRANCO DINATALE,RIGHT AT HOME REALTY,"$539,900",43.6573767,79.3744501
27/06/2024,1038 - 111 ELIZABETH STREET,TORONTO,ONTARIO,M5G1P7,ALEKSANDAR FILIPOV,RIGHT AT HOME REALTY,"$719,888",43.6551126,79.3848059
6/24/2024,1038 - 55 GEORGE APPLETON WAY,TORONTO,ONTARIO,M3M0A2,DAVID ELFASSY,SUTTON GROUP-ADMIRAL REALTY INC.,"$609,900",43.7250779,79.4799864
25/06/2024,103N - 3 HICKORY TREE ROAD,TORONTO,ONTARIO,M9N3W5,TAMARA GAITAN,KELLER WILLIAMS REAL ESTATE ASSOCIATES,"$749,000",43.6983793,79.5140051
03/07/2024,104 - 10 DEERLICK COURT,TORONTO,ONTARIO,M3A0A7,JAMES COOK,KELLER WILLIAMS CO-ELEVATION REALTY,"$525,000",43.759177,79.3319292
03/07/2024,104 - 128 FAIRVIEW MALL DRIVE,TORONTO,ONTARIO,M2J2Z1,HEIDI KA YEE ENG,RE/MAX REALTRON REALTY INC.,"$585,000",43.77998,79.3449211
03/07/2024,104 - 2 SONIC WAY,TORONTO,ONTARIO,M3C0P2,SULTANA MIAKHIL,CENTURY 21 LANDMARK REALTY LTD.,"$575,000",43.7195387,79.3366542
03/07/2024,104 - 22 SHALLMAR BOULEVARD,TORONTO,ONTARIO,M5N2Z8,FAITHE SVERSKY,FOREST HILL REAL ESTATE INC.,"$549,500",43.704579,79.4257075
6/26/2024,104 - 225 THE DONWAY W,TORONTO,ONTARIO,M3B2V7,ADIL ESMAIL,CENTURY 21 PERCY FULTON LTD.,"$1,595,000",43.7386742,79.3465237
6/24/2024,104 - 3531 LAKE SHORE BOULEVARD W,TORONTO,ONTARIO,M8W1P4,MAUREEN GONSALVES,ROYAL LEPAGE SIGNATURE REALTY,"$659,000",43.5944846,79.5327128
02/07/2024,104 - 5131 SHEPPARD AVENUE E,TORONTO,ONTARIO,M1B0C9,RUSHELLE MITCHELL,WE REALTY,"$499,999",43.793889,79.2373174
03/07/2024,104 - 551 THE WEST MALL,TORONTO,ONTARIO,M9C1G7,SAM SARAN,CENTURY 21 LEGACY LTD.,"$550,000",43.6518401,79.5697714
6/24/2024,104 - 90 FISHERVILLE ROAD,TORONTO,ONTARIO,M2R3J9,HAIM HARTMAN,SUTTON GROUP-ADMIRAL REALTY INC.,"$839,000",43.7897446,79.4520106
04/07/2024,104 AILEEN AVENUE,TORONTO,ONTARIO,M6M1E9,DAVELLE MORRISON,BOSLEY REAL ESTATE LTD.,"$898,000",43.6846121,79.4666906
6/26/2024,104 ARGYLE STREET,TORONTO,ONTARIO,M6J1N9,KARA YETTA REED,CHESTNUT PARK REAL ESTATE LIMITED,"$5,850,000",43.6467265,79.4218736
29/06/2024,104 LAUDER AVENUE,TORONTO,ONTARIO,M6H3E5,HOWARD BIDERMAN,HARVEY KALLES REAL ESTATE LTD.,"$1,989,000",43.6771486,79.4394422
02/07/2024,104-P5 - 56 ANNIE CRAIG DRIVE,TORONTO,ONTARIO,M8V0C8,ROSE NGUYEN,HARLOWE REALTY CORPORATION,$499,43.6254787,79.4788159
03/07/2024,105 - 155 LEGION ROAD N,TORONTO,ONTARIO,M8Y0A7,ANDREW VINCENT IANNI,CAPITAL NORTH REALTY CORPORATION,"$569,000",43.6239698,79.4884113
04/07/2024,105 - 1582 BATHURST STREET W,TORONTO,ONTARIO,M5P3H3,MARK ALIASSA,HARVEY KALLES REAL ESTATE LTD.,"$1,595/MONTHLY",43.6866351,79.4199364
02/07/2024,105 - 1730 EGLINTON AVENUE,TORONTO,ONTARIO,M4A2X9,GEORGE H. OELKER,ROYAL LEPAGE CONNECT REALTY,"$495,000",43.725838,79.309897
6/24/2024,105 - 1787 ST.CLAIR AVENUE W,TORONTO,ONTARIO,M6N0B7,MONIKA WROBLEWSKA,ORION REALTY CORPORATION,"$749,000",43.6735313,79.4621048
6/25/2024,105 - 2213 KINGSTON ROAD,TORONTO,ONTARIO,M1N1T7,CAROL ELIZABETH FODERICK,KELLER WILLIAMS ADVANTAGE REALTY,"$844,900",43.703315,79.2527345
04/07/2024,105 - 262 ST HELENS AVENUE,TORONTO,ONTARIO,M6H4A4,AMY GILMORE,RE/MAX HALLMARK REALTY LTD.,"$899,900",43.6564701,79.443819
02/07/2024,105 - 320 DIXON ROAD,TORONTO,ONTARIO,M9R1S8,DANIELLE DESJARDINS,ROYAL LEPAGE SIGNATURE REALTY,"$459,999",43.6966281,79.5522517
03/07/2024,105 - 320 DIXON ROAD,TORONTO,ONTARIO,M9R1S8,DANIELLE DESJARDINS,ROYAL LEPAGE SIGNATURE REALTY,"$449,999",43.6966281,79.5522517
03/07/2024,105 - 35 STRANGFORD LANE,TORONTO,ONTARIO,M1L0E5,ALEXANDRO SCLAVI,EXP REALTY,"$599,900",43.7098966,79.2948364
02/07/2024,105 - 39 KIMBERCROFT COURT,TORONTO,ONTARIO,M1S5B5,DIL CHOWDHURY,RE/MAX ROYAL PROPERTIES REALTY,"$500,000",43.7918957,79.2385071
02/07/2024,105 - 55 NEPTUNE DRIVE,TORONTO,ONTARIO,M6A1X2,COSIMO OPPEDISANO,ROYAL LEPAGE MAXIMUM REALTY,"$299,900",43.7320928,79.435973
25/06/2024,105 AILEEN AVENUE,TORONTO,ONTARIO,M6M1E8,ARUL SIVASUBRAMANIAM,CENTURY 21 INNOVATIVE LAH TEAM REALTY,"$950,000",43.6842494,79.466662
6/24/2024,105 BERGEN ROAD,TORONTO,ONTARIO,M1P1S3,MATTHEW LUEY,ROYAL LEPAGE SIGNATURE REALTY,"$897,000",43.7577707,79.2873756
04/07/2024,105 ELNATHAN CRESCENT,TORONTO,ONTARIO,M9L2G2,PAUL SIMONETTA,PMA BRETHOUR REAL ESTATE CORPORATION INC.,"$990,000",43.7594296,79.5687967
04/07/2024,105 EMPRINGHAM DRIVE,TORONTO,ONTARIO,M1B4A6,MURALI KANAGASABAI,HOME CHOICE REALTY INC.,"$949,900",43.8119435,79.2125853
27/06/2024,1050 OSSINGTON AVENUE,TORONTO,ONTARIO,M6G3V6,SAM ALLAN MCDADI,SAM MCDADI REAL ESTATE INC.,"$1,050,000",43.6699179,79.4291852
02/07/2024,1052 - 100 MORNELLE COURT,TORONTO,ONTARIO,M1E4X2,AZEEZ OYEBANJI ADESANYA,ROYAL LEPAGE SIGNATURE REALTY,"$469,000",43.7872772,79.1950138
03/07/2024,106 - 114 VAUGHAN ROAD,TORONTO,ONTARIO,M6C2M1,ADELE MCGOVERN,RE/MAX WEST REALTY INC.,"$499,000",43.6840508,79.4216602
03/07/2024,106 - 270 SCARLETT ROAD,TORONTO,ONTARIO,M6N4X7,WENDY JEAN BOWE,GEO REALTY ORIGINATORS LIMITED,"$524,000",43.6770912,79.5071514
25/06/2024,106 - 2855 BLOOR STREET W,TORONTO,ONTARIO,M8X3A1,MONICA THAPAR,SNOBAR REALTY GROUP INC.,"$1,399,888",43.6496577,79.499827
03/07/2024,106 - 35 HAYDEN STREET,TORONTO,ONTARIO,M4Y3C3,YUE HE,SUTTON GROUP REALTY SYSTEMS INC.,"$549,495",43.6696226,79.3847443
02/07/2024,106 - 4 ELSINORE PATH,TORONTO,ONTARIO,M8V4G7,KEVIN DAVID NOWACKI,RE/MAX PROFESSIONALS SIDOROVA INWOOD REALTY,"$450,000",43.6013873,79.5101944
02/07/2024,106 - 5 MASSEY SQUARE,TORONTO,ONTARIO,M4C5L6,JASKIRAT KAUR DHAMI,ROYAL CANADIAN REALTY,"$420,000",43.6962848,79.2928
02/07/2024,106 - 75 SCARBOROUGH ROAD,TORONTO,ONTARIO,M4E3M4,KERRY JACKSON,ROYAL LEPAGE ESTATE REALTY,"$449,900",43.675619,79.2847476
27/06/2024,106 - 800 KENNEDY ROAD,TORONTO,ONTARIO,M1K2C8,MELISSA KITAZAKI,BOSLEY REAL ESTATE LTD.,"$529,900",43.7331984,79.2692233
27/06/2024,106 ATLAS AVENUE,TORONTO,ONTARIO,M6C3P3,STEVE ZAHND,REAL BROKER ONTARIO LTD.,"$999,999",43.6844718,79.4325186
6/24/2024,107 - 1050 THE QUEENSWAY AVENUE,TORONTO,ONTARIO,M8Z0A8,GELAREH SADEGHI,HOMELIFE/BAYVIEW REALTY INC.,"$929,900",43.6234284,79.5170165
6/26/2024,107 - 1730 EGLINTON AVENUE E,TORONTO,ONTARIO,M4A2X9,THERESA FORGET,ROYAL HERITAGE REALTY LTD.,"$599,999",43.7261021,79.3099641
6/26/2024,107 - 25 HOLLY STREET,TORONTO,ONTARIO,M4S0E3,ROBERT S. GREENBERG,HARVEY KALLES REAL ESTATE LTD.,"$1,898,000",43.7058187,79.3959738
03/07/2024,107 - 3220 SHEPPARD AVENUE E,TORONTO,ONTARIO,M1T0B7,VICTORIA ZHANG,RE/MAX REALTRON REALTY INC.,"$579,999",43.7772275,79.3151347
02/07/2024,107 - 400 THE EAST MALL AVENUE,TORONTO,ONTARIO,M9B3Z9,INDER SINGH,RE/MAX REALTY ENTERPRISES INC.,"$499,900",43.6465478,79.5605635
02/07/2024,107 - 580 CHRISTIE STREET,TORONTO,ONTARIO,M6G3E3,ANTONY MALFARA,ROYAL LEPAGE SIGNATURE REALTY,"$449,000",43.6791844,79.425361
03/07/2024,107 - 61 MARKBROOK LANE,TORONTO,ONTARIO,M9V5E7,MICHAEL K. POON,CPPI REALTY INC.,"$544,900",43.7592761,79.5852836
04/07/2024,107 - 61 MARKBROOK LANE,TORONTO,ONTARIO,M9V5E7,MICHAEL K. POON,CPPI REALTY INC.,"$539,900",43.7592761,79.5852836
04/07/2024,1070 SHEPPARD AVENUE W UNIT# 611,TORONTO,ONTARIO,M3J0G8,TITO HUYNH,"CENTURY 21 MILLER REAL ESTATE LTD., BROKERAGE","$619,900",43.75065799,79.46503932
03/07/2024,1076 - 100 MORNELLE COURT,TORONTO,ONTARIO,M1E4X2,BAS PARAMANATHAN,CENTURY 21 TITANS REALTY INC.,"$599,900",43.7872772,79.1950138
6/24/2024,1076 HUNTINGWOOD DRIVE,TORONTO,ONTARIO,M1S3H5,JENNY PANG,HOMELIFE LANDMARK REALTY INC.,"$1,190,000",43.7971308,79.2847701
6/26/2024,108 - 119 MERTON STREET,TORONTO,ONTARIO,M4S3G5,JORDAN RASBERRY,CORE ASSETS REAL ESTATE,"$759,000",43.6967977,79.3923687
29/06/2024,108 - 233 BEECROFT ROAD,TORONTO,ONTARIO,M2N6Z9,FRANK LEO,RE/MAX WEST REALTY INC.,"$949,000",43.7694871,79.416317
02/07/2024,108 - 2603 BATHURST STREET,TORONTO,ONTARIO,M6B2Z6,IRENE KAUSHANSKY,KELLER WILLIAMS PORTFOLIO REALTY,"$459,000",43.7078317,79.4264305
02/07/2024,108 - 4060 LAWRENCE AVENUE E,TORONTO,ONTARIO,M1E4V4,HAO ZHANG,HOMELIFE LANDMARK REALTY INC.,"$469,900",43.7663853,79.197659
04/07/2024,108 - 45 SILVER SPRING BOULEVARD,TORONTO,ONTARIO,M1V1R2,SASITHARAN KULASEGARAM,RE/MAX REALTRON REALTY INC.,"$499,888",43.8008773,79.3052206
04/07/2024,108 CARLAW AVENUE,TORONTO,ONTARIO,M4M2R7,CLAUDIO CERRITO,RE/MAX HALLMARK REALTY LTD.,"$989,000",43.65805,79.33905
04/07/2024,108 GOVERNMENT ROAD,TORONTO,ONTARIO,M8X1W5,LARA ARMOUR,THE DIAMOND REALTY INC.,"$2,998,999",43.6589915,79.5117827
6/24/2024,108 STRATFORD CRESCENT,TORONTO,ONTARIO,M4N1C6,CAILEY HEAPS,ROYAL LEPAGE REAL ESTATE SERVICES HEAPS ESTRIN TEAM,"$9,800,000",43.721048,79.3841123
04/07/2024,1085 ROYAL YORK ROAD,TORONTO,ONTARIO,M8X2G8,MARKIAN SILECKY,RE/MAX PROFESSIONALS INC.,"$1,398,000",43.6559587,79.5148283
6/25/2024,1089 PHARMACY AVENUE,TORONTO,ONTARIO,M1R2H2,JOON HUH,RIGHT AT HOME REALTY,"$1,399,000",43.7417308,79.3037078
03/07/2024,109 - 145 CANON JACKSON DRIVE,TORONTO,ONTARIO,M6M0E1,MAY LIU,HILLSDALE REAL ESTATE INC.,"$525,000",43.6972011,79.4744881
03/07/2024,109 - 37 FOUR WINDS DRIVE,TORONTO,ONTARIO,M3J1K7,ATHAR RAFIQUE VIRK,HOMELIFE/MIRACLE REALTY LTD,"$589,900",43.7638433,79.4981137
03/07/2024,109 - 5039 FINCH AVENUE E,TORONTO,ONTARIO,M1S5L6,ANTHONY HOO KAI MA,HOMELIFE CULTURELINK REALTY INC.,"$599,000",43.8079464,79.2648816
02/07/2024,109 - 5225 FINCH AVENUE E,TORONTO,ONTARIO,M1S5W8,HUIJUN XUE,REAL ONE REALTY INC.,"$489,000",43.8101653,79.2550759
29/06/2024,109 HOUNSLOW AVENUE,TORONTO,ONTARIO,M2N2B1,DOMENIC SCOLIERI,RE/MAX WEST REALTY INC.,"$3,499,900",43.7743135,79.4195389
03/07/2024,1092 - 100 MORNELLE COURT,TORONTO,ONTARIO,M1E4X2,HELEN GAO,58HOME REALTY POINT,"$509,900",43.7872772,79.1950138
03/07/2024,1094 - 100 MORNELLE COURT,TORONTO,ONTARIO,M1E4X2,GETHRO DORVAL,HOMELIFE/VISION REALTY INC.,"$579,999",43.7872772,79.1950138
02/07/2024,1097 - 100 MORNELLE COURT,TORONTO,ONTARIO,M1E4X2,ROSA LEE-MUNGER,RE/MAX ROYAL PROPERTIES REALTY,"$450,000",43.7872772,79.1950138
25/06/2024,11 - 38 GIBSON AVENUE,TORONTO,ONTARIO,M9N0A5,KEN ZOU,REAL ONE REALTY INC.,"$588,000",43.7017018,79.5072181
03/07/2024,11 - 38 GIBSON AVENUE,TORONTO,ONTARIO,M9N0A5,KEN ZOU,REAL ONE REALTY INC.,"$538,000",43.7017018,79.5072181
04/07/2024,11 - 50 BLACKWELL AVENUE,TORONTO,ONTARIO,M1B1K2,SHAHJADI FARZANA,HOMELIFE/MIRACLE REALTY LTD,"$830,000",43.8043511,79.2212438
27/06/2024,11 ABRAHAM WELSH ROAD,TORONTO,ONTARIO,M9M0B7,NELSON LOU LOURENCO,SUTTON GROUP ELITE REALTY INC.,"$999,999",43.7326636,79.5329982
27/06/2024,11 ABRAHAM WELSH ROAD ROAD,TORONTO,ONTARIO,M9M0B7,NELSON LOURENCO,SUTTON GROUP ELITE REALTY INC BROKERAGE,"$999,999",43.73272989,79.53305937
29/06/2024,11 CLEMENT ROAD,TORONTO,ONTARIO,M9R1Y5,BOB SENGAR,SUTTON GROUP - REALTY EXPERTS INC.,"$999,900",43.6782548,79.5635482
27/06/2024,11 JACINTA DRIVE,TORONTO,ONTARIO,M6L1H6,CATHY KIM,ROYAL LEPAGE TERREQUITY PLATINUM REALTY,"$1,750,000",43.7072719,79.4891107
6/26/2024,11 NORTHCOTE AVENUE,TORONTO,ONTARIO,M6J3K2,SUZANNE CLAIRE MANVELL,ROYAL LEPAGE REAL ESTATE SERVICES LTD.,"$1,835,000",43.6433669,79.4259067
27/06/2024,11 RIDGEWOOD ROAD,TORONTO,ONTARIO,M5P1T4,BARRY COHEN,RE/MAX REALTRON BARRY COHEN HOMES INC.,"$10,800,000",43.6913416,79.420603
27/06/2024,11 SAUNDERS ROAD,TORONTO,ONTARIO,M1J3J1,GARY A. BROWN,RE/MAX ALL-STARS REALTY INC.,"$1,279,000",43.7488071,79.2082849
6/24/2024,11 TANBARK CRESCENT,TORONTO,ONTARIO,M3B1N7,KENNETH JIANG,DREAM HOME REALTY INC.,"$3,488,000",43.7434024,79.3655876
6/24/2024,11 WOOLGAR AVENUE,TORONTO,ONTARIO,M8Z4Y5,FRANK LOMBARDI,RE/MAX PROFESSIONALS INC.,"$1,249,000",43.6233511,79.5200111
02/07/2024,110 - 17 MICHAEL POWER PLACE,TORONTO,ONTARIO,M9A5G5,ASHKAN RAHIMI-SERESHT,HOUSESIGMA INC.,"$499,500",43.6454798,79.5303831
04/07/2024,110 - 17 MICHAEL POWER PLACE,TORONTO,ONTARIO,M9A5G5,ASHKAN RAHIMI-SERESHT,HOUSESIGMA INC.,"$399,500",43.6454798,79.5303831
03/07/2024,110 - 59 EAST LIBERTY STREET,TORONTO,ONTARIO,M6K3R1,LUISA BADA,SPECTRUM REALTY SERVICES INC.,"$598,000",43.6384215,79.4136993
04/07/2024,110 - 618A FLEET STREET,TORONTO,ONTARIO,M5V1B9,HERNAN M. BEREZAN,SUTTON GROUP-ASSOCIATES REALTY INC.,"$970,000",43.636245,79.4025709
04/07/2024,110 GALLEY AVENUE,TORONTO,ONTARIO,M6R1H1,GEON VAN DER WYST,"JOHNSTON & DANIEL DIVISION, ROYAL LEPAGE R.E.S. PROPERTIES INSTYLE","$1,769,000",43.6435461,79.4451079
6/26/2024,110 ROBINSON AVENUE,TORONTO,ONTARIO,M1L3T3,TATYANA BODYAKIN,RIGHT AT HOME REALTY,"$799,000",43.6968363,79.2807472
27/06/2024,1101 - 10 OAK STREET,TORONTO,ONTARIO,M5A0A2,GISELLA LINARES,THE DANIELS REALTY CORPORATION,"$725,900",43.6609431,79.366284
03/07/2024,1101 - 1190 DUNDAS STREET E,TORONTO,ONTARIO,M4M1S3,HENRY DINEEN,SOTHEBY'S INTERNATIONAL REALTY CANADA,"$569,000",43.6652349,79.3411672
03/07/2024,1101 - 150 FAIRVIEW MALL DRIVE,TORONTO,ONTARIO,M2J4T1,KATHLEEN XIE,VIP REALTY GROUP INC.,"$575,000",43.779718,79.3426566
03/07/2024,1101 - 350 ALTON TOWERS CIRCLE,TORONTO,ONTARIO,M1V5E3,JIM KWAN,EXCELLENT REALTY LTD.,"$548,000",43.8228272,79.2751544
03/07/2024,1101 - 380 DIXON ROAD,TORONTO,ONTARIO,M9R1T3,RAKIB ZAMAN,CENTURY 21 LEADING EDGE REALTY INC.,"$510,000",43.6949961,79.5567885
6/26/2024,1101 - 3865 LAKE SHORE BOULEVARD W,TORONTO,ONTARIO,M8W1R4,SUKHVIR JAWANDHA,CENTURY 21 PRESIDENT REALTY INC.,"$674,900",43.5899314,79.5450785
03/07/2024,1101 - 460 ADELAIDE STREET E,TORONTO,ONTARIO,M5A0E7,PAUL LISANTI,KELLER WILLIAMS SIGNATURE REALTY,"$590,000",43.6528922,79.3667341
03/07/2024,1101 - 7 MICHAEL POWER PLACE,TORONTO,ONTARIO,M9A0A4,MARIA LUISA NAVAL,ONE PERCENT REALTY LTD.,"$525,000",43.6444714,79.528826
6/25/2024,1102 - 100 MORNELLE COURT,TORONTO,ONTARIO,M1E4X2,RONALD POON,RIGHT AT HOME REALTY,"$649,000",43.7872772,79.1950138
03/07/2024,1102 - 30 HERONS HILL WAY,TORONTO,ONTARIO,M2J0A7,KIRI RAMANATHAN,HOMELIFE/FUTURE REALTY INC.,"$590,000",43.7749383,79.3352515
02/07/2024,1102 - 301 PRUDENTIAL DRIVE,TORONTO,ONTARIO,M1P4V3,JACKY WU,"T-ONE GROUP REALTY INC.,","$399,000",43.7499333,79.2687131
03/07/2024,1102 - 551 THE WEST MALL AVENUE,TORONTO,ONTARIO,M9C1G7,MUHAMED SHARIFUZZAMAN,RIGHT AT HOME REALTY,"$535,000",43.6524909,79.5690912
03/07/2024,1102 - 600 FLEET STREET,TORONTO,ONTARIO,M5V1B7,KENNETH YIM,KELLER WILLIAMS REFERRED URBAN REALTY,"$599,900",43.6368407,79.40026
03/07/2024,1102 - 88 HARBOUR STREET N,TORONTO,ONTARIO,M5J0C3,MICHAEL CHAU,SKYLINE MARKETING REALTY INC.,"$2,350/MONTHLY",43.6418534,79.3790565
27/06/2024,1103 - 3391 BLOOR STREET W,TORONTO,ONTARIO,M8X1G3,ANDREW JOHN BONELLO,BRAD J. LAMB REALTY 2016 INC.,"$799,900",43.6442533,79.5238525
02/07/2024,1103 - 45 CHARLES STREET E,TORONTO,ONTARIO,M4Y0B8,MICHAEL HO,CONDOWONG REAL ESTATE INC.,"$499,000",43.6689111,79.383977
03/07/2024,1103 - 55 ANN O'REILLY ROAD,TORONTO,ONTARIO,M2J0E1,JAMES PARK,RE/MAX CROSSROADS REALTY INC.,"$555,000",43.7735266,79.329593
6/26/2024,1103 - 61 HEINTZMAN STREET,TORONTO,ONTARIO,M6P5A2,HEATHER HADDEN,BERKSHIRE HATHAWAY HOMESERVICES TORONTO REALTY,"$529,000",43.666837,79.4638009
03/07/2024,1103 SE - 60 PRINCESS STREET,TORONTO,ONTARIO,M5A2C7,ROSE NGUYEN,HARLOWE REALTY CORPORATION,"$590,000",43.6495299,79.3664445
29/06/2024,1104 - 1 BLOOR STREET E,TORONTO,ONTARIO,M4W1A9,MING LI,HOMELIFE LANDMARK REALTY INC.,"$1,175,000",43.6701587,79.3862462
02/07/2024,1104 - 120 DUNDALK DRIVE,TORONTO,ONTARIO,M1P4V9,PAKEER SAHADEVAN,RE/MAX COMMUNITY REALTY INC.,"$499,000",43.7713233,79.2870871
03/07/2024,1104 - 1250 BRIDLETOWNE CIRCLE,TORONTO,ONTARIO,M1W2V1,ROBIN YANG,NU STREAM REALTY (TORONTO) INC.,"$589,000",43.794472,79.3123028
27/06/2024,1104 - 126 SIMCOE STREET,TORONTO,ONTARIO,M5H4E6,BILLY KAM-YAN YIP,HOMELIFE/BAYVIEW REALTY INC.,"$699,000",43.6489727,79.3872946
6/24/2024,1104 - 2365 KENNEDY ROAD E,TORONTO,ONTARIO,M1T3S6,YUELI LI,HOMELIFE NEW WORLD REALTY INC.,"$680,000",43.785257,79.2885703
25/06/2024,1104 - 25 CARLTON STREET,TORONTO,ONTARIO,M5B1L2,PAUL NAGPAL,RE/MAX HALLMARK REALTY LTD.,"$849,900",43.6612664,79.3815928
6/24/2024,1104 - 319 MERTON STREET,TORONTO,ONTARIO,M4S1A5,DANA BARAK,HOMELIFE FRONTIER REALTY INC.,"$825,000",43.6977252,79.387155
03/07/2024,1104 - 50 ANN O'REILLY ROAD,TORONTO,ONTARIO,M2J0C8,KELLY QIU,BAY STREET GROUP INC.,"$535,000",43.7744217,79.3299915
27/06/2024,1104 - 50 THOMAS RILEY ROAD,TORONTO,ONTARIO,M9B0C5,VARINDER ARORA,HOMELIFE/MIRACLE REALTY LTD,"$869,000",43.6336928,79.5413038
04/07/2024,1104 - 59 EAST LIBERTY STREET,TORONTO,ONTARIO,M6K3R1,NASRUDDIN JABRANI,CITYSCAPE REAL ESTATE LTD.,"$4,293/MONTHLY",43.6384215,79.4136993
03/07/2024,1105 - 111 ELIZABETH STREET,TORONTO,ONTARIO,M5G1P7,FRANK MERIGLIANO,RE/MAX PREMIER INC.,"$594,900",43.6551126,79.3848059
04/07/2024,1105 - 20 EDWARD STREET,TORONTO,ONTARIO,M5G0C5,JESSICA LI,RE/MAX REALTRON REALTY INC.,"$2,500/MONTHLY",43.6569939,79.3821206
25/06/2024,1105 - 3077 WESTON ROAD,TORONTO,ONTARIO,M9M3A1,SAYAN KARALASINGAM,HOMELIFE/FUTURE REALTY INC.,"$525,000",43.7324208,79.5369426
02/07/2024,1105 - 3077 WESTON ROAD,TORONTO,ONTARIO,M9M3A1,SAYAN KARALASINGAM,HOMELIFE/FUTURE REALTY INC.,"$500,000",43.7324317,79.5369303
03/07/2024,1105 - 5 OLD SHEPPARD AVENUE,TORONTO,ONTARIO,M2J4K3,SHAR BANIFATEMI,REAL BROKER ONTARIO LTD.,"$598,000",43.7772938,79.3367694
03/07/2024,1106 - 2087 LAKE SHORE BOULEVARD W,TORONTO,ONTARIO,M8V4G3,JILL MERRY,RE/MAX REALTY ENTERPRISES INC.,"$539,000",43.6296586,79.4773122
6/26/2024,1106 - 2885 BAYVIEW AVENUE,TORONTO,ONTARIO,M2K0A3,WINS WING-SEZ LAI,LIVING REALTY INC.,"$649,000",43.7680885,79.3880855
29/06/2024,1106 - 2A CHURCH STREET,TORONTO,ONTARIO,M5E0E1,SYLVIA SHI,HOMELIFE LANDMARK REALTY INC.,"$2,500/MONTHLY",43.6468734,79.3733061
29/06/2024,1106 - 33 BAY STREET E,TORONTO,ONTARIO,M5J2Z3,SANNIE NG,LIVING REALTY INC.,"$688,000",43.6427875,79.3771823
25/06/2024,1106 - 500 SHERBOURNE STREET,TORONTO,ONTARIO,M4X1L1,NATHAN DANIEL DAUTOVICH,PG DIRECT REALTY LTD.,"$575,000",43.6679021,79.3756819
02/07/2024,1106 - 600 FLEET STREET,TORONTO,ONTARIO,M5V1B7,DARINKA (DOREEN) KOSANOVIC,RE/MAX ULTIMATE REALTY INC.,"$449,000",43.6368407,79.40026
03/07/2024,1107 - 1 THE ESPLANADE,TORONTO,ONTARIO,M5E0A8,GEORGE KOZARIS,ROYAL LEPAGE VISION REALTY,"$549,900",43.6458823,79.375992
25/06/2024,1107 - 270 DUFFERIN STREET,TORONTO,ONTARIO,M6K0H8,KALSANG PHUNTSOK,CENTURY 21 REGAL REALTY INC.,"$799,000",43.6384128,79.4276448
27/06/2024,1107 - 32 DAVENPORT ROAD,TORONTO,ONTARIO,M5R0B5,ALI KETABCHIAN,ARDENT REAL ESTATE INC.,"$1,138,000",43.6732718,79.3898897
02/07/2024,1107 - 3390 WESTON ROAD,TORONTO,ONTARIO,M9M2X3,SATINDER MANGAT,HOMELIFE SILVERCITY REALTY INC.,"$498,900",43.7491874,79.5427005
27/06/2024,1107 - 36 BLUE JAYS WAY,TORONTO,ONTARIO,M5V3T3,GLORIA YEUNG,RE/MAX HALLMARK REALTY LTD.,"$838,000",43.6449372,79.3920442
03/07/2024,1107 - 400 ADELAIDE STREET E,TORONTO,ONTARIO,M5A4S3,TARIQ MUMTAZ,WORLD CLASS REALTY POINT,"$580,000",43.6527814,79.3677616
25/06/2024,1107 - 576 FRONT STREET W,TORONTO,ONTARIO,M5V0P8,LEO CHENG,RIGHT AT HOME REALTY,"$1,225,000",43.6411268,79.4007594
02/07/2024,1108 - 1030 KING STREET W,TORONTO,ONTARIO,M6K0B4,MARK VETERE,REXIG REALTY INVESTMENT GROUP LTD.,"$499,000",43.6415878,79.415938
02/07/2024,1108 - 138 DOWNES STREET,TORONTO,ONTARIO,M5E0E4,JUDY CAI,EVERLAND REALTY INC.,"$489,000",43.6445327,79.371261
03/07/2024,1108 - 195 BONIS AVENUE,TORONTO,ONTARIO,M1T0A5,KAREN CHUN,SUPERSTARS REALTY LTD.,"$529,000",43.7855843,79.2915073
27/06/2024,1108 - 22 WELLESLEY STREET E,TORONTO,ONTARIO,M4Y1G3,EDWARD ZHANG,HOMELIFE NEW WORLD REALTY INC.,"$789,000",43.6654816,79.3832754
27/06/2024,1108 - 25 RICHMOND STREET E,TORONTO,ONTARIO,M5C0A6,JING YIN,HOME LEGEND REALTY INC.,"$779,000",43.6519017,79.3772165
29/06/2024,1108 - 7 MICHAEL POWER PLACE,TORONTO,ONTARIO,M9A0A4,RON CHICHORA,SLAVENS & ASSOCIATES REAL ESTATE INC.,"$569,900",43.6445123,79.5293797
03/07/2024,1108 - 75 QUEENS WHARF ROAD,TORONTO,ONTARIO,M5V0J8,KEVIN ALEXANDER WONG,BAY STREET INTEGRITY REALTY INC.,"$2,350/MONTHLY",43.6384766,79.3980126
03/07/2024,1108 - 99 BLACKWELL AVENUE,TORONTO,ONTARIO,M1B3R5,PRABH J SINGH,HOMELIFE/MIRACLE REALTY LTD,"$534,900",43.8053774,79.2201784
29/06/2024,1109 - 15 MICHAEL POWER PLACE,TORONTO,ONTARIO,M9A5G4,LINDSAY LEMIERZEWICZ,IPRO REALTY LTD.,"$498,000",43.6448522,79.5300905
6/24/2024,1109 - 18 HARRISON GARDEN BOULEVARD S,TORONTO,ONTARIO,M2N7J7,CATHERINE FRANCES KAVANAGH,ON THE BLOCK,"$599,000",43.7574594,79.409243
6/24/2024,1109 - 23 LORRAINE DRIVE,TORONTO,ONTARIO,M2N6Z6,ELAINE WANG,BAY STREET GROUP INC.,"$739,000",43.7783026,79.4167177
03/07/2024,1109 - 25 BASEBALL PLACE,TORONTO,ONTARIO,M4M0E7,JITENDRA P VORA,HOMELIFE/CHAMPIONS REALTY INC.,"$550,000",43.6575617,79.3510624
6/24/2024,1109 - 255 RICHMOND STREET E,TORONTO,ONTARIO,M5A4T7,BRIAN SU,LIVING REALTY INC.,"$729,900",43.6528455,79.3704456
29/06/2024,1109 - 2645 KIPLING AVENUE,TORONTO,ONTARIO,M9V3S6,NAV DHALIWAL,BLUE ROSE REALTY INC.,"$549,900",43.7475606,79.5834475
03/07/2024,1109 - 290 ADELAIDE STREET W,TORONTO,ONTARIO,M5V1P6,ANNA SHARMA,RE/MAX CROSSROADS REALTY INC.,"$589,900",43.6480955,79.3910202
25/06/2024,1109 - 33 UNIVERSITY AVENUE,TORONTO,ONTARIO,M5J2S7,DANIEL GRUZ,PROPERTY.CA INC.,"$2,279,000",43.6462538,79.3835997
03/07/2024,1109 - 451 THE WEST MALL,TORONTO,ONTARIO,M9C1G1,VLAD CRUZ,RE/MAX WEST REALTY INC.,"$528,900",43.6469411,79.5667435
03/07/2024,1109 - 58 ORCHARD VIEW BOULEVARD,TORONTO,ONTARIO,M4R1B9,KENNETH WONG,PINE REAL ESTATE,"$535,000",43.7081369,79.4005574
27/06/2024,1109 - 62 FOREST MANOR ROAD,TORONTO,ONTARIO,M2J0B6,JOE ZHOU,JDL REALTY INC.,"$808,900",43.7738988,79.3454116
03/07/2024,111 - 1701 MCCOWAN ROAD,TORONTO,ONTARIO,M1S2Y3,HARRY SIU,ANJIA REALTY,"$580,000",43.7883348,79.2562953
03/07/2024,111 - 20 FOREST MANOR ROAD,TORONTO,ONTARIO,M2J1M2,IVORY TINGTING WANG,JDL REALTY INC.,"$569,000",43.7700557,79.3442588
03/07/2024,111 - 24 NOBLE STREET,TORONTO,ONTARIO,M6K2C8,SEAN MICHAEL HOLMES,BOSLEY REAL ESTATE LTD.,"$540,000",43.6428905,79.4305289
6/26/2024,111 - 3560 ST. CLAIR AVENUE E,TORONTO,ONTARIO,M1K0A9,LUCKY PARAMAGURU,ROYAL LEPAGE IGNITE REALTY,"$399,999",43.653226,79.3831843
27/06/2024,111 - 705 KING STREET W,TORONTO,ONTARIO,M5V2W8,NAVEEN VARGHESE,KELLER WILLIAMS REFERRED URBAN REALTY,"$579,900",43.6434345,79.4041684
6/24/2024,111 BOSTON AVENUE,TORONTO,ONTARIO,M4M2T8,YANN DANYLUK,CHESTNUT PARK REAL ESTATE LIMITED,"$2,499,000",43.66433,79.33965
27/06/2024,111 EVANS AVENUE,TORONTO,ONTARIO,M8Z1J3,AJEET S VANKWANI,KELLER WILLIAMS REAL ESTATE ASSOCIATES,"$1,649,000",43.619325,79.5070809
02/07/2024,1110 - 10 TAPSCOTT ROAD,TORONTO,ONTARIO,M1B3L9,HARVINDER BHOGAL,RE/MAX REALTRON REALTY INC.,"$375,000",43.8059594,79.2190998
03/07/2024,1110 - 10 TAPSCOTT ROAD,TORONTO,ONTARIO,M1B3L9,HARVINDER BHOGAL,RE/MAX REALTRON REALTY INC.,"$399,000",43.8059594,79.2190998
03/07/2024,1110 - 1060 SHEPPARD AVENUE W,TORONTO,ONTARIO,M3J0G7,DARIA CHAYKA,CIREALTY,"$575,000",43.7506296,79.4640415
03/07/2024,1110 - 38 JOE SHUSTER WAY,TORONTO,ONTARIO,M6K0A5,SASHA SIDHU,HOMELIFE/MIRACLE REALTY LTD,"$529,999",43.6405102,79.4245603
03/07/2024,1110 - 75 DALHOUSIE STREET,TORONTO,ONTARIO,M5B2R2,JONATHAN SANTOS,ROYAL LEPAGE URBAN REALTY,"$599,999",43.6554873,79.3759283
04/07/2024,1111 - 1338 YORK MILLS ROAD,TORONTO,ONTARIO,M3A3M3,RAY BERNARD,ROYAL LEPAGE ESTATE REALTY,"$499,000",43.762966,79.3208819
04/07/2024,1111 - 15 WINDERMERE AVENUE,TORONTO,ONTARIO,M6S5A2,STIRLING WINECK,KELLER WILLIAMS EDGE REALTY,"$585,000",43.637012,79.4689799
29/06/2024,1111 - 30 HARRISON GARDEN BOULEVARD,TORONTO,ONTARIO,M2N7A9,DAVID ELFASSY,SUTTON GROUP-ADMIRAL REALTY INC.,"$499,000",43.7565538,79.408622
27/06/2024,1111 - 33 SINGER COURT,TORONTO,ONTARIO,M2K0B4,DI ZHENG,BAY STREET GROUP INC.,"$850,000",43.7695053,79.3687853
02/07/2024,1111 - 3311 KINGSTON ROAD,TORONTO,ONTARIO,M1M1R1,MUHAMMAD REHMAN,HOMELIFE/MIRACLE REALTY LTD,"$485,000",43.7332525,79.222429
03/07/2024,1111 - 40 PANORAMA COURT,TORONTO,ONTARIO,M9V4M1,STANKA KARAPANCEVA,FOREST HILL REAL ESTATE INC.,"$599,000",43.7476922,79.5797904
02/07/2024,1112 - 1 MASSEY SQUARE,TORONTO,ONTARIO,M4C5L4,MOHAMMED HASAN,RE/MAX CROSSROADS REALTY INC.,"$423,000",43.696526,79.294243
03/07/2024,1112 - 100 PRUDENTIAL DRIVE,TORONTO,ONTARIO,M1P4V4,FARAH KHAN,HOMELIFE MAPLE LEAF REALTY LTD.,"$579,000",43.7495943,79.2669008
03/07/2024,1112 - 1346 DANFORTH ROAD,TORONTO,ONTARIO,M1J0A9,EILEEN M. SAFRAJ,HOMELIFE GALAXY REAL ESTATE LTD.,"$530,000",43.7439408,79.2469117
03/07/2024,1112 - 14 YORK STREET,TORONTO,ONTARIO,M5J2Z2,HEATHER LEA HARTT,HARVEY KALLES REAL ESTATE LTD.,"$549,000",43.6419657,79.3815389
02/07/2024,1112 - 318 KING STREET E,TORONTO,ONTARIO,M5A0C1,WEI MING ZHANG,AIMHOME REALTY INC.,"$439,000",43.6525806,79.3637352
03/07/2024,1112 - 33 SINGER COURT,TORONTO,ONTARIO,M2K0B4,CYNTHIA DA COSTA,RE/MAX CROSSROADS REALTY INC.,"$549,900",43.7695053,79.3687853
03/07/2024,1112 - 736 BAY STREET,TORONTO,ONTARIO,M5G2M4,GABRIEL PAK HO CHAN,CENTURY 21 ATRIA REALTY INC.,"$569,900",43.6594674,79.3855404
03/07/2024,1112E - 34 TUBMAN AVENUE,TORONTO,ONTARIO,M5A0R2,JING LIN LI,HOMELIFE NEW WORLD REALTY INC.,"$599,999",43.6612119,79.359668
02/07/2024,1113 - 99 BLACKWELL AVENUE E,TORONTO,ONTARIO,M1B3R5,ISFAK TAREK,THE CANADIAN HOME REALTY INC.,"$449,998",43.805298,79.2203005
6/24/2024,1114 - 30 TRETTI WAY,TORONTO,ONTARIO,M3H0E3,SANDIP CHOOK,ROYAL LEPAGE WEST REALTY GROUP LTD.,"$550,000",43.7330693,79.4485317
02/07/2024,1114 - 478 KING STREET W,TORONTO,ONTARIO,M5V0A8,LOUIE LUK,CENTURY 21 LEADING EDGE REALTY INC.,"$489,000",43.6454454,79.3960975
02/07/2024,1115 - 11 WINCOTT DRIVE,TORONTO,ONTARIO,M9R2R9,FARRAH HANIFF,YOUR HOME SOLD GUARANTEED REALTY - THE ELITE REALTY GROUP,"$499,900",43.6952654,79.5508479
03/07/2024,1115 - 219 DUNDAS STREET E,TORONTO,ONTARIO,M5A0V1,KEVIN CEN,BAY STREET GROUP INC.,"$569,900",43.6574902,79.3729582
03/07/2024,1116 - 19 BATHURST STREET,TORONTO,ONTARIO,M6A2E1,ERIC XUE,PROMPTON REAL ESTATE SERVICES CORP.,"$529,000",43.6403332,79.4012378
02/07/2024,1116 - 215 QUEEN STREET W,TORONTO,ONTARIO,M5A1S2,BERJ BEDROS,RIGHT AT HOME REALTY,"$484,990",43.6504277,79.3877847
6/26/2024,1116 - 57 ST JOSEPH STREET,TORONTO,ONTARIO,M5S2Y1,SABRINA LI,FIRST CLASS REALTY INC.,"$2,600/MONTHLY",43.6654338,79.3879838
03/07/2024,1116 - 75 EAST LIBERTY STREET,TORONTO,ONTARIO,M6K3R3,RAYMOND YONG,SUTTON GROUP REALTY SYSTEMS INC.,"$539,900",43.6380814,79.4147929
03/07/2024,1117 - 30 SHORE BREEZE DRIVE,TORONTO,ONTARIO,M8V0J1,STEVEN JIN,CENTURY 21 KING'S QUAY REAL ESTATE INC.,"$599,000",43.6237762,79.479633
03/07/2024,1118 - 3 GREYSTONE WALK DRIVE,TORONTO,ONTARIO,M1K5J4,HAROON SHIRZAD,ROYAL LEPAGE FLOWER CITY REALTY,"$588,800",43.7244428,79.2517461
03/07/2024,1119 - 1060 SHEPPARD AVENUE W,TORONTO,ONTARIO,M3J0G7,CLIFF GEROCHE,RE/MAX REALTRON REALTY INC.,"$550,000",43.7506089,79.4638689
6/26/2024,1119 - 230 KING STREET E,TORONTO,ONTARIO,M5A1K5,ALEKSANDRA OLEKSAK,SAGE REAL ESTATE LIMITED,"$769,900",43.6514464,79.3681507
03/07/2024,1119 - 3100 KEELE STREET,TORONTO,ONTARIO,M3M0E1,THOMAS MARKAKOS,RESIDENTIAL DEVELOPMENT SERVICES INC.,"$565,000",43.7400361,79.4856773
03/07/2024,112 - 50 GEORGE BUTCHART DRIVE,TORONTO,ONTARIO,M3K2C5,MERCEDES STREKER,REXIG REALTY INVESTMENT GROUP LTD.,"$545,000",43.7365452,79.4838787
03/07/2024,112 - 61 MARKBROOK LANE,TORONTO,ONTARIO,M9V5E7,MARY B PADULA,EXP REALTY,"$579,800",43.7591954,79.585249
6/24/2024,112 BOOTH AVENUE,TORONTO,ONTARIO,M4M2M4,TOM CLARKE STOREY,ROYAL LEPAGE SIGNATURE REALTY,"$1,199,900",43.6580246,79.3428585
27/06/2024,112 LAUGHTON AVENUE,TORONTO,ONTARIO,M6N2X2,CLAUDE BOIRON,ROYAL LEPAGE TERREQUITY REALTY,"$799,000",43.6708389,79.4563024
27/06/2024,112 PORTSDOWN ROAD,TORONTO,ONTARIO,M1P1V5,ROBERT WENG,HOMELIFE LANDMARK REALTY INC.,"$1,100,000",43.7569581,79.2840833
6/26/2024,1120 - 55 MERCHANTS' WHARF,TORONTO,ONTARIO,M5A0P2,PETER Q. DOU,GOLDEN HOUSE REALTY INC.,"$1,729,900",43.6442824,79.3637949
02/07/2024,1121 - 120 VARNA DRIVE,TORONTO,ONTARIO,M6A0B3,WESLEY BAI,ROYAL LEPAGE PEACELAND REALTY,"$448,888",43.7235804,79.445742
02/07/2024,1122 - 270 WELLINGTON STREET W,TORONTO,ONTARIO,M5V3P5,WAYNE MURDOCK,IXL AT REAL ESTATE INC.,"$487,888",43.6451021,79.3908361
03/07/2024,1122 ISLINGTON AVENUE,TORONTO,ONTARIO,M8Z4S2,SIMON THAM,KELLER WILLIAMS REAL ESTATE ASSOCIATES,"$3,799,000",43.637969,79.5209811
27/06/2024,1123 - 30 SHORE BREEZE DRIVE,TORONTO,ONTARIO,M8V0J1,DAVID ALLAN FRIESTADT,ROYAL LEPAGE ESTATE REALTY,"$1,018,000",43.6237762,79.479633
03/07/2024,1125 - 251 MANITOBA STREET,TORONTO,ONTARIO,M8Y0C7,AMAN MALHI,CENTURY 21 LEGACY LTD.,"$569,000",43.6238372,79.4893647
6/26/2024,1125 - 31 TIPPETT ROAD,TORONTO,ONTARIO,M3H0C8,ELIZABETH ALLEYNE,RE/MAX HALLMARK FIRST GROUP REALTY LTD.,"$499,000",43.7335125,79.4460849
03/07/2024,1125 - 3100 KEELE STREET,TORONTO,ONTARIO,M3M0E1,THOMAS MARKAKOS,RESIDENTIAL DEVELOPMENT SERVICES INC.,"$585,000",43.7400361,79.4856773
03/07/2024,1127 - 15 JAMES FINLAY WAY,TORONTO,ONTARIO,M3M0B3,JAMES TASCA,ICI SOURCE REAL ASSET SERVICES INC.,"$588,000",43.7260596,79.4801998
03/07/2024,1128 - 25 LOWER SIMCOE STREET,TORONTO,ONTARIO,M5J3A1,NED WOO,BLUE WHALE CAPITAL REALTY INC.,"$588,000",43.6414247,79.3832711
03/07/2024,113 - 1 FALAISE ROAD,TORONTO,ONTARIO,M1E0B9,HARISH KUMAR,RE/MAX REALTY SERVICES INC.,"$569,000",43.7693819,79.1888179
03/07/2024,113 - 293 THE KINGSWAY,TORONTO,ONTARIO,M9A0E8,JENNIFER LYNN CHALMERS,SAGE REAL ESTATE LIMITED,"$599,000",43.6633531,79.5203428
27/06/2024,113 - 31 TIPPETT ROAD,TORONTO,ONTARIO,M3H0C8,YUEYUE MA,"T-ONE GROUP REALTY INC.,","$755,000",43.7335125,79.4460849
27/06/2024,113 - 701 SHEPPARD AVENUE W,TORONTO,ONTARIO,M3H0B2,MANI BATOO,RE/MAX REAL ESTATE CENTRE INC.,"$689,900",43.7542446,79.4432827
04/07/2024,113 ERNEST AVENUE,TORONTO,ONTARIO,M2J3T7,SONG HAI,LIVING REALTY INC.,"$1,760,000",43.7907051,79.3344317
03/07/2024,113 LAMB AVENUE,TORONTO,ONTARIO,M4J4M5,NEHAD SHEHATA,RSTM REALTY INC.,"$1,199,000",43.680969,79.3285906
02/07/2024,1134 - 5 MABELLE AVENUE,TORONTO,ONTARIO,M9A0C8,JASMEET SINGH MAKKAR,SINGH BROTHERS REALTY INC.,"$498,999",43.6466642,79.5255121
29/06/2024,114 - 36 ZORRA STREET,TORONTO,ONTARIO,M8Z0G5,SUKHI DHILLON,INTERCITY REALTY INC.,"$599,000",43.6199063,79.521806
27/06/2024,114 - 485 LOGAN AVENUE,TORONTO,ONTARIO,M4M2P5,MELISSA NGUYEN,SAGE REAL ESTATE LIMITED,"$585,000",43.6667252,79.3445755
03/07/2024,114 - 500 WILSON AVENUE,TORONTO,ONTARIO,M3H5Y9,JONATHAN NHAM,RESIDENTIAL DEVELOPMENT SERVICES INC.,"$564,990",43.7353469,79.4453099
6/24/2024,114 - 510 KINGBIRD GROVE,TORONTO,ONTARIO,M1B0E4,SHEREEN BADAWI,RE/MAX ACE REALTY INC.,"$649,999",43.8049688,79.1836635
25/06/2024,114 - 870 JANE STREET,TORONTO,ONTARIO,M6N4C2,NADEEM MUMTAZ,RIGHT AT HOME REALTY,"$599,999",43.6762768,79.4960269
25/06/2024,114 BALDWIN STREET,TORONTO,ONTARIO,M5T1L6,BRAM JONATHAN ZEIDENBERG,ROYAL LEPAGE ESTATE REALTY,"$8,999,900",43.6557723,79.3979853
29/06/2024,114 LEXFIELD AVENUE,TORONTO,ONTARIO,M3M1M8,ELISABETH CORREIA,RE/MAX WEST REALTY INC.,"$898,888",43.7296216,79.4991143
25/06/2024,114 SW - 121 LOWER SHERBOURNE STREET,TORONTO,ONTARIO,M5A0W8,ROSE NGUYEN,HARLOWE REALTY CORPORATION,"$879,000",43.6495044,79.3670392
03/07/2024,114 TREEVIEW DRIVE,TORONTO,ONTARIO,M8W4C3,SHARONA NANDALAL,KINGSWAY REAL ESTATE,"$1,199,000",43.6112871,79.5357601
27/06/2024,115 - 105 SCENIC MILL WAY,TORONTO,ONTARIO,M2L1T1,ROGER TRAVASSOS,REAL BROKER ONTARIO LTD.,"$1,369,000",43.7512723,79.383021
6/25/2024,115 - 1703 MCCOWAN ROAD,TORONTO,ONTARIO,M1S4L1,SHAMIM KHARODIA,CENTURY 21 INNOVATIVE PINNACLE REAL ESTATE GROUP,"$529,995",43.7885425,79.2566136
25/06/2024,115 - 35 BRIAN PECK CRESCENT,TORONTO,ONTARIO,M4G0A5,TEJPARTAP SINGH,EXECUTIVE REAL ESTATE SERVICES LTD.,"$2,149,000",43.7146943,79.3540828
27/06/2024,115 LINSMORE CRESCENT,TORONTO,ONTARIO,M4J4K7,DAN CAMPANELLA,KELLER WILLIAMS ADVANTAGE REALTY,"$1,350,000",43.6863447,79.3313782
25/06/2024,116 - 251 MANITOBA STREET,TORONTO,ONTARIO,M8Y4G9,MOE EMBAREK,RE/MAX PREMIER INC.,"$1,300,000",43.6238372,79.4893647
6/24/2024,1178 GERRARD STREET E,TORONTO,ONTARIO,M4L1Y4,NANCY GRENIER,IPRO REALTY LTD.,"$1,198,000",43.6704397,79.3311566
25/06/2024,118 - 370 HOPEWELL AVENUE,TORONTO,ONTARIO,M6E2S2,MARY L. SBLENDORIO,CITY ALLIANCE REAL ESTATE SERVICES LTD.,"$465,000",43.7007672,79.4431776
03/07/2024,118 - 4005 DON MILLS ROAD,TORONTO,ONTARIO,M2H3J9,ERROL PAULICPULLE,HARVEY KALLES REAL ESTATE LTD.,"$599,900",43.810356,79.3601064
6/24/2024,118 - 870 JANE STREET,TORONTO,ONTARIO,M6N4C2,VICTORIA REID,LANDLORD REALTY INC.,"$2,750/MONTHLY",43.6762768,79.4960269
27/06/2024,1185B QUEEN STREET E,TORONTO,ONTARIO,M4M1L6,AMY YOUNGREN,REAL BROKER ONTARIO LTD.,"$1,249,000",43.662673,79.3318965
02/07/2024,119 - 180 MARKHAM ROAD,TORONTO,ONTARIO,M1M2Z9,JOY S. D'AOUST,RIGHT AT HOME REALTY,"$465,000",43.7416633,79.2193215
6/24/2024,119 - 20 ELSIE LANE,TORONTO,ONTARIO,M6P3N9,SERENA BUDHWANI,REAL ESTATE BAY REALTY,"$879,000",43.6599563,79.4518384
6/24/2024,119 - 35 BASTION STREET,TORONTO,ONTARIO,M5V0C1,AMIR MOZAFFARI,KINGSWAY REAL ESTATE,"$698,800",43.6372259,79.4036067
04/07/2024,119 HEALE AVENUE,TORONTO,ONTARIO,M1N3Y2,AISAN MOHAMMAD,HOMELIFE ELITE SERVICES REALTY INC.,"$699,888",43.7158807,79.2511929
29/06/2024,12 - 135 LONG BRANCH AVENUE,TORONTO,ONTARIO,M8W0A9,HUGO ERNESTO CEREN,PSR,"$3,975/MONTHLY",43.5964934,79.53441
04/07/2024,12 - 20 WOODSTREAM DRIVE,TORONTO,ONTARIO,M9W0G1,WILLIAM TRAN,HOMELIFE SUPERSTARS REAL ESTATE LIMITED,"$699,000",43.7212665,79.6118824
02/07/2024,12 - 785 BROWN'S LINE,TORONTO,ONTARIO,M8W3V8,SHELLEY PORRITT,ROYAL LEPAGE PORRITT REAL ESTATE,"$489,000",43.6087645,79.5475707
03/07/2024,12 DONEWEN COURT,TORONTO,ONTARIO,M4A1P8,EVA HAASE,ROYAL LEPAGE SIGNATURE REALTY,"$1,498,000",43.732404,79.3142325
6/26/2024,12 FONTHILL PLACE,TORONTO,ONTARIO,M3J3G6,KELLY ALVAREZ ORDONEZ,RE/MAX REALTY SPECIALISTS INC.,"$999,999",43.7500112,79.4929847
6/25/2024,12 HAREWOOD AVENUE,TORONTO,ONTARIO,M1M2R2,OLGA IVASHKEVICH,ATV REALTY INC,"$1,250,000",43.7180003,79.2332422
27/06/2024,12 PORTER AVENUE,TORONTO,ONTARIO,M6N2G9,ALCIDE P FRANCISCO,RE/MAX ULTIMATE REALTY INC.,"$889,900",43.6825695,79.4793003
6/24/2024,12 REID MANOR,TORONTO,ONTARIO,M8Y2H7,EVAN ANDREW CHRISTENSEN,HARVEY KALLES REAL ESTATE LTD.,"$2,699,000",43.6401558,79.5029898
03/07/2024,12 SPRINGBROOK GARDENS,TORONTO,ONTARIO,M8Z3B5,FRANK LEO,RE/MAX WEST REALTY INC.,"$1,565,000",43.6411789,79.5204774
04/07/2024,12 VALLEYMEDE ROAD,TORONTO,ONTARIO,M6S1G9,SHERYL YVONNE BRADSHAW,ROYAL LEPAGE REAL ESTATE SERVICES LTD.,"$2,269,900",43.6487793,79.4728118
03/07/2024,120 - 11 MARYPORT AVENUE,TORONTO,ONTARIO,M3M0E2,SARAH LEE,UNION CAPITAL REALTY,"$530,000",43.739539,79.486137
25/06/2024,120 FRONT STREET E,TORONTO,ONTARIO,M5A4A9,BRIAN ANDREW PORTER,CBRE LIMITED,"$3,000,000",43.6502465,79.3698206
6/24/2024,120 HOWARD PARK AVENUE,TORONTO,ONTARIO,M6R1V6,ALAN J. GEAR,RE/MAX WEST REALTY INC.,"$2,549,999",43.6513187,79.4531823
25/06/2024,120 REDWATER DRIVE,TORONTO,ONTARIO,M9W2A2,JESSIE ACOB DE BELEN,HOMELIFE/FUTURE REALTY INC.,"$1,049,900",43.7163233,79.5663147
29/06/2024,120 WILLIAM DUNACAN ROAD,TORONTO,ONTARIO,M3K0C1,APRIL SUN,ROYAL LEPAGE PEACELAND REALTY,"$4,500/MONTHLY",43.7359663,79.4759163
03/07/2024,1201 - 1 HICKORY TREE ROAD,TORONTO,ONTARIO,M9N3W4,MARIA FERNANDA MIRANDA,RE/MAX ULTIMATE REALTY INC.,"$599,000",43.6980964,79.5137392
02/07/2024,1201 - 117 GERRARD STREET,TORONTO,ONTARIO,M5B2L4,VLADIMIR REZNIK,TIMES REALTY GROUP INC.,"$495,000",43.6602378,79.3760305
03/07/2024,1201 - 12 YORK STREET,TORONTO,ONTARIO,M5J0A9,MARY TRAN,JMAS REALTY INC.,"$545,000",43.6417442,79.3819559
27/06/2024,1201 - 15 SEWELLS ROAD,TORONTO,ONTARIO,M1B3V7,SAM AL-ZAMAN,ONE PERCENT REALTY LTD.,"$448,900",43.8067506,79.2171378
6/24/2024,1201 - 17 ANNDALE DRIVE,TORONTO,ONTARIO,M2N2W7,GREG GUAN,HOMELIFE LANDMARK REALTY INC.,"$2,550/MONTHLY",43.7600084,79.4075693
6/24/2024,1201 - 18 YONGE STREET,TORONTO,ONTARIO,M5E1Z8,SUNDEEP BAHL,RE/MAX PLUS CITY TEAM INC.,"$695,000",43.6446048,79.3765047
03/07/2024,1201 - 205 SHERWAY GARDENS ROAD,TORONTO,ONTARIO,M9C0A5,ADAM JANTOS,ROYAL LEPAGE TERREQUITY REALTY,"$579,000",43.6097628,79.5571699
02/07/2024,1201 - 2645 KIPLING AVENUE,TORONTO,ONTARIO,M9V3S6,ROSA BELLISSIMO,ROYAL LEPAGE TERREQUITY REALTY,"$384,900",43.7475606,79.5834475
25/06/2024,1201 - 3 GLOUCESTER STREET,TORONTO,ONTARIO,M4Y0C6,JIAN J. QIU,HOMELIFE LANDMARK REALTY INC.,"$599,000",43.6663119,79.3845087
03/07/2024,1201 - 757 VICTORIA PARK AVENUE,TORONTO,ONTARIO,M4C5N8,LUDY PONCE,CENTURY 21 PEOPLE'S CHOICE REALTY INC.,"$515,000",43.6924701,79.2883226
03/07/2024,1201 - 8 THE ESPLANADE,TORONTO,ONTARIO,M5E0A6,ROSEMARIE JAMES,ROYAL LEPAGE RCR REALTY,"$579,000",43.6460366,79.3763206
03/07/2024,1202 - 1461 LAWRENCE AVENUE W,TORONTO,ONTARIO,M6L0A6,MARIO SALLATI,TIMBERSTONE REALTY,"$599,990",43.7074982,79.4797966
25/06/2024,1202 - 19 GRAND TRUNK CRESCENT,TORONTO,ONTARIO,M5J3A3,PUSHPA DHAWAN,HOMELIFE/ROMANO REALTY LTD.,"$850,000",43.6416602,79.3827118
03/07/2024,1202 - 33 FREDERICK TODD WAY,TORONTO,ONTARIO,M4G0C9,LOUIE LUK,CENTURY 21 LEADING EDGE REALTY INC.,"$538,000",43.7136632,79.3607021
04/07/2024,1202 - 410 QUEENS QUAY W,TORONTO,ONTARIO,M5V3T1,KAREN LAW,CENTURY 21 LEADING EDGE REALTY INC.,"$629,000",43.6379529,79.3914512
02/07/2024,1202 - 50 LOTHERTON PATHWAY,TORONTO,ONTARIO,M6B2G7,ZACK FENWICK,HARVEY KALLES REAL ESTATE LTD.,"$429,900",43.7058771,79.4670119
29/06/2024,1202 - 552 WELLINGTON STREET W,TORONTO,ONTARIO,M5V2V5,MATTHEW BRIENZA,RE/MAX ALL-STARS THE PB TEAM REALTY,"$4,500/MONTHLY",43.6428462,79.4018611
27/06/2024,1202 - 99 FOXBAR ROAD,TORONTO,ONTARIO,M4V0B2,LESLIE WALLENDER LYONS,ROYAL LEPAGE/J & D DIVISION,"$1,769,000",43.6864535,79.4003053
03/07/2024,1203 - 181 WYNFORD DRIVE,TORONTO,ONTARIO,M3C0C6,NADIR SHAH,IPRO REALTY LTD.,"$679,000",43.725004,79.3286445
02/07/2024,1203 - 5101 DUNDAS STREET W,TORONTO,ONTARIO,M9A5G8,NOT AVAILABLE,KELLER WILLIAMS SIGNATURE REALTY,"$484,900",43.6449121,79.5317338
6/26/2024,1204 - 10 MARKBROOK LANE,TORONTO,ONTARIO,M9V5E3,OLAITAN NURUDEEN OWONIYI,RIGHT AT HOME REALTY,"$595,000",43.7590098,79.5885688
6/24/2024,1204 - 1055 BAY STREET,TORONTO,ONTARIO,M5S3A3,MATTHEW JIANG,REAL ONE REALTY INC.,"$2,550/MONTHLY",43.6667282,79.3876786
02/07/2024,1204 - 18 MAITLAND TERRACE,TORONTO,ONTARIO,M4Y0H2,LUCY LIU,HOMELIVING EMPIRE REALTY INC.,"$479,000",43.6636845,79.3834726
04/07/2024,1204 - 197 YONGE STREET,TORONTO,ONTARIO,M5B1M4,TATYANA POYLOVA,RIGHT AT HOME REALTY,"$565,000",43.6534359,79.3791875
27/06/2024,1204 - 5 EVERSON DRIVE,TORONTO,ONTARIO,M2N7C3,MARY-KATE ROSE,SAGE REAL ESTATE LIMITED,"$688,888",43.7573748,79.4066841
25/06/2024,1204 - 633 BAY STREET,TORONTO,ONTARIO,M5G2G4,QIANG MA,JDL REALTY INC.,"$760,000",43.6567783,79.3832756
6/24/2024,1204 - 840 QUEEN'S PLATE DRIVE,TORONTO,ONTARIO,M9W0E7,GOLDA MUTHURAJAH,HOMELIFE/FUTURE REALTY INC.,"$2,450/MONTHLY",43.7204262,79.6034454
27/06/2024,1204 AVENUE ROAD,TORONTO,ONTARIO,M5N2G4,SUZY GOLDSTEIN,SUTTON GROUP-ADMIRAL REALTY INC.,"$2,395,000",43.712298,79.4119224
6/24/2024,1205 - 10 TOBERMORY DRIVE,TORONTO,ONTARIO,M3N2Y5,AMRITA PATWARI TRIKHA,REALTY ONE GROUP FLAGSHIP,"$3,000/MONTHLY",43.7598569,79.5088171
04/07/2024,1205 - 215 SHERWAY GARDENS ROAD,TORONTO,ONTARIO,M9C0A4,RAMEZ WILLIAM ZEMOKHOL,IPRO REALTY LTD,"$520,000",43.6094508,79.55742
25/06/2024,1205 - 33 SHEPPARD AVENUE E,TORONTO,ONTARIO,M2N7K1,FARHAD SHAHAMI,RIGHT AT HOME REALTY,"$685,888",43.7612748,79.408924
03/07/2024,1205 - 39 ANNIE CRAIG DRIVE,TORONTO,ONTARIO,M8V0H1,ALVIN TUNG,RIGHT AT HOME REALTY,"$590,000",43.625812,79.4778589
03/07/2024,1205 - 50 ORDNANCE STREET,TORONTO,ONTARIO,M6K1A2,FRANK MERIGLIANO,RE/MAX PREMIER INC.,"$599,000",43.6396981,79.4097181
6/24/2024,1205 - 7 GRENVILLE STREET,TORONTO,ONTARIO,M4Y0E9,EMMA CAI,HOMELIFE NEW WORLD REALTY INC.,"$898,000",43.6619393,79.3838729
27/06/2024,1205 - 8 THE ESPLANADE,TORONTO,ONTARIO,M5E0A6,LOUIS H. DESTOUNIS,HARVEY KALLES REAL ESTATE LTD.,"$1,499,000",43.6460366,79.3763206
6/24/2024,1205 - 86 GLOUCESTER STREET,TORONTO,ONTARIO,M4Y2S2,SARAH GWYNNETH BOOTH,CHESTNUT PARK REAL ESTATE LIMITED,"$829,900",43.6677328,79.3809199
03/07/2024,1205 - 9 VALHALLA INN ROAD,TORONTO,ONTARIO,M9B1S9,BESSA LIKA,RE/MAX PROFESSIONALS INC.,"$559,000",43.6399691,79.559482
02/07/2024,1205E - 36 LISGAR STREET,TORONTO,ONTARIO,M6J0C7,SHANNON SMITH,KIC REALTY,"$17,484",43.6419929,79.4235282
03/07/2024,1206 - 15 ZORRA STREET,TORONTO,ONTARIO,M8Z4Z6,KIYA HASHEMI,FERROW REAL ESTATE INC.,"$529,000",43.6212404,79.5213634
02/07/2024,1206 - 345 DRIFTWOOD AVENUE,TORONTO,ONTARIO,M3N2P4,NADIA YANCHUK,CENTURY 21 HERITAGE GROUP LTD.,"$430,000",43.7673892,79.5121055
02/07/2024,1206 - 725 DON MILLS ROAD,TORONTO,ONTARIO,M3C1S6,BRIAN BYUNGHOON YU,ROYAL LEPAGE NEW CONCEPT,"$495,000",43.71154,79.3334415
6/26/2024,1207 - 1101 LESLIE STREET,TORONTO,ONTARIO,M3C4G3,JOHN FILNTISSIS,ROYAL LEPAGE TERREQUITY TCK FINE HOMES REALTY,"$2,550/MONTHLY",43.7203888,79.3492752
27/06/2024,1207 - 111 ELIZABETH STREET,TORONTO,ONTARIO,M5G1P7,PHILIP NGON-TIM NG,CENTURY 21 LEADING EDGE REALTY INC.,"$750,000",43.6551126,79.3848059
04/07/2024,1207 - 120 HOMEWOOD AVENUE,TORONTO,ONTARIO,M4Y2J3,MICHAEL SWITZER,FOREST HILL REAL ESTATE INC.,"$799,000",43.6669945,79.3763662
02/07/2024,1207 - 121 MCMAHON DRIVE,TORONTO,ONTARIO,M2K0C2,SIMON NGOK-PANG YEUNG,HOMELIFE NEW WORLD REALTY INC.,"$499,900",43.7676473,79.3706957
29/06/2024,1207 - 1320 ISLINGTON AVENUE,TORONTO,ONTARIO,M9A5C6,KELLY JACK,ROYAL LEPAGE REAL ESTATE SERVICES LTD.,"$890,000",43.6500087,79.5264893
25/06/2024,1207 - 28 FREELAND STREET,TORONTO,ONTARIO,M5E1L7,STANLEY WONG,HOMELIFE FRONTIER REALTY INC.,"$1,119,900",43.6436476,79.3737615
27/06/2024,1207 - 940 CALEDONIA ROAD S,TORONTO,ONTARIO,M6B3Y4,EUGENE PREVILON,HOMELIFE/CIMERMAN REAL ESTATE LIMITED,"$440,000",43.7062324,79.467079
03/07/2024,1208 - 161 ROEHAMPTON AVENUE,TORONTO,ONTARIO,M4P1P9,WENDY YANG,SMART SOLD REALTY,"$588,000",43.7090752,79.3948648
03/07/2024,1208 - 18 GRAYDON HALL DRIVE,TORONTO,ONTARIO,M3A0A4,AMY LEUNG,SUPERSTARS REALTY LTD.,"$545,000",43.7627086,79.3464254
03/07/2024,1208 - 236 ALBION ROAD,TORONTO,ONTARIO,M9W6A6,MARTA DE SOUSA,RE/MAX ULTIMATE REALTY INC.,"$519,900",43.7220294,79.5439701
03/07/2024,1208 - 36 LEE CENTRE DRIVE,TORONTO,ONTARIO,M1H3K2,ELLY ZHANG,CENTURY 21 THE ONE REALTY,"$538,000",43.7817697,79.2472678
6/24/2024,1208 - 3865 LAKE SHORE BOULEVARD W,TORONTO,ONTARIO,M8W0A2,LISA ROBINSON,SOTHEBY'S INTERNATIONAL REALTY CANADA,"$829,000",43.5899314,79.5450785
02/07/2024,1208 - 4645 JANE STREET,TORONTO,ONTARIO,M3N2K9,VIVEK DANI,HOMELIFE/GTA REALTY INC.,"$330,000",43.7694348,79.5198158
25/06/2024,1209 - 12 YORK STREET,TORONTO,ONTARIO,M5J0A9,TARA CROOKS,REAL BROKER ONTARIO LTD.,"$629,900",43.6417442,79.3819559
29/06/2024,1209 - 20 RICHARDSON STREET,TORONTO,ONTARIO,M5A0S6,HANADI DARWISH,CENTURY 21 LEADING EDGE REALTY INC.,"$699,000",43.645568,79.3686869
02/07/2024,1209 - 2645 KIPLING AVENUE,TORONTO,ONTARIO,M9V3S6,KAVITA SINGH,EXP REALTY,"$469,999",43.7475606,79.5834475
03/07/2024,1209 - 85 BLOOR STREET E,TORONTO,ONTARIO,M4W3Y1,SEAN DONNELLY,KELLER WILLIAMS REFERRED URBAN REALTY,"$535,000",43.6702331,79.3843476
03/07/2024,121 - 60 GEORGE BUTCHART DRIVE N,TORONTO,ONTARIO,M3K0E1,PUSHPINDER SINGH,UPHOMES REALTY POINT,"$598,000",43.7364282,79.4835959
04/07/2024,121 - 7 KENASTON GARDENS,TORONTO,ONTARIO,M2K1G7,KENDRICK MEANA,HOMELIFE/MIRACLE REALTY LTD,"$599,999",43.7667291,79.3856795
27/06/2024,121 COXWELL AVENUE,TORONTO,ONTARIO,M4L3B3,AMANDA RIX,ROYAL LEPAGE ESTATE REALTY,"$499,000",43.6697148,79.3178085
02/07/2024,1210 - 100 LOTHERTON PATHWAY,TORONTO,ONTARIO,M6B2G8,LEE DIAS,RE/MAX WEST REALTY INC.,"$395,999",43.7064762,79.4675632
03/07/2024,1210 - 121 MCMAHON DRIVE,TORONTO,ONTARIO,M2K0C1,MEILIN CHOU,CENTURY 21 KING'S QUAY REAL ESTATE INC.,"$599,880",43.7676473,79.3706957
02/07/2024,1210 - 151 DAN LECKIE WAY,TORONTO,ONTARIO,M5V4B2,DAVID CHUNG YIN POON,STRATA REAL ESTATE,"$499,000",43.6398431,79.3979199
25/06/2024,1210 - 2 ANNDALE DRIVE,TORONTO,ONTARIO,M2N0G5,JESSIE BAO,RE/MAX ATRIUM HOME REALTY,"$3,200/MONTHLY",43.7607405,79.4084851
04/07/2024,1210 - 210 SIMCOE STREET E,TORONTO,ONTARIO,M5T2W5,SHAN THAYAPARAN,RE/MAX COMMUNITY REALTY INC.,"$769,000",43.6525593,79.3884782
27/06/2024,1210 - 30 INN ON THE PARK DRIVE,TORONTO,ONTARIO,M3C2J7,JAMES AMINPOOR,RIGHT AT HOME REALTY,"$1,518,000",43.7197492,79.3488744
25/06/2024,1210 - 325 BAY STREET,TORONTO,ONTARIO,M5H4G3,IRA DAVID JELINEK,HARVEY KALLES REAL ESTATE LTD.,"$999,000",43.649722,79.380278
03/07/2024,1210 - 39 ROEHAMPTON AVENUE,TORONTO,ONTARIO,M4P1P9,GINO SPAGNUOLO,RE/MAX HALLMARK REALTY LTD.,"$749,988",43.7081279,79.3971351
04/07/2024,1210 - 460 ADELAIDE STREET E,TORONTO,ONTARIO,M5A0E7,ANDREW DOUMONT,KELLER WILLIAMS REFERRED URBAN REALTY,"$575,000",43.6528922,79.3667341
6/24/2024,1211 - 100 HARRISON GARDEN BOULEVARD E,TORONTO,ONTARIO,M2N2T2,CHRISTINE MENG,BESTLIVING SIGNATURE REALTY INC.,"$1,499,000",43.7571072,79.4040667
03/07/2024,1211 - 251 MANITOBA STREET,TORONTO,ONTARIO,M8Y4G9,ANDREW SCERBINA,SEARCH REALTY,"$569,000",43.6238372,79.4893647
6/26/2024,1211 - 256 DORIS AVENUE,TORONTO,ONTARIO,M2N6X8,QUINCY WAI CHI CHAN,HOMELIFE NEW WORLD REALTY INC.,"$579,000",43.7716108,79.4121372
03/07/2024,1211 - 56 FOREST MANOR ROAD,TORONTO,ONTARIO,M2J1M6,AMAN RAKHRA,KINGSWAY REAL ESTATE,"$539,999",43.7733449,79.3450628
04/07/2024,1211 - 575 BLOOR STREET E,TORONTO,ONTARIO,M4W0B2,SABA ZADMAJID,RIGHT AT HOME REALTY,"$2,600/MONTHLY",43.6718782,79.3724592
03/07/2024,1212 - 128 FAIRVIEW MALL DRIVE,TORONTO,ONTARIO,M2J0E8,CAMERON DUAN,CENTURY 21 KING'S QUAY REAL ESTATE INC.,"$549,000",43.77998,79.3449211
27/06/2024,1212 - 195 REDPATH AVENUE,TORONTO,ONTARIO,M4R0E4,JIA LI,SUTTON GROUP-ADMIRAL REALTY INC.,"$659,000",43.710166,79.39348
02/07/2024,1212 - 88 SCOTT STREET,TORONTO,ONTARIO,M5E0A9,PAUL CHI-CHOW CHENG,EXP REALTY,"$499,000",43.6484074,79.3763344
6/25/2024,1213 - 100 WINGARDEN COURT,TORONTO,ONTARIO,M1B2P4,NIGEL MOHAN,CENTURY 21 PERCY FULTON LTD.,"$479,800",43.8113979,79.2260673
03/07/2024,1213 - 170 SUMACH STREET,TORONTO,ONTARIO,M5A0C3,JEFF JAFFARI,RE/MAX HALLMARK REALTY LTD.,"$549,900",43.6602911,79.3606615
03/07/2024,1213 - 30 TRETTI WAY,TORONTO,ONTARIO,M3H0E3,AMY PING,FIRST CLASS REALTY INC.,"$508,000",43.7328501,79.4479795
29/06/2024,1214 - 155 LEGION ROAD N,TORONTO,ONTARIO,M8Y0A7,DAVIS CARNIELLO,ROYAL LEPAGE SIGNATURE REALTY,"$589,900",43.6239698,79.4884113
6/24/2024,1214 - 18 YONGE STREET,TORONTO,ONTARIO,M5E1Z8,JACK LY,RE/MAX HALLMARK REALTY LTD.,"$548,800",43.6446048,79.3765047
03/07/2024,1214 - 200 VICTORIA STREET,TORONTO,ONTARIO,M5B1V8,KENNETH SHIM,RE/MAX CONDOS PLUS CORPORATION,"$579,000",43.654536,79.3791043
03/07/2024,1214 - 3050 ELLESMERE ROAD,TORONTO,ONTARIO,M1E5E6,ASM MOSTAQUE,CENTURY 21 LEADING EDGE REALTY INC.,"$554,900",43.7854974,79.196389
03/07/2024,1214 - 711 BAY STREET,TORONTO,ONTARIO,M5G2J8,OLEG SNIHUR,RIGHT AT HOME REALTY,"$579,999",43.658882,79.3845473
03/07/2024,1215 - 1 LEE CENTRE DRIVE,TORONTO,ONTARIO,M1H3J2,RANA PARVEJ,ROYAL LEPAGE TERREQUITY REALTY,"$534,900",43.7813124,79.2452782
03/07/2024,1216 - 11 BRUNEL COURT,TORONTO,ONTARIO,M5V3Y3,ASLI OZDEMIR,SOTHEBY'S INTERNATIONAL REALTY CANADA,"$528,000",43.6393683,79.3933145
25/06/2024,1216 - 39 ANNIE CRAIG DRIVE,TORONTO,ONTARIO,M8V0C5,MIKE NAKEEB,RE/MAX WEST REALTY INC.,"$1,289,900",43.625812,79.4778589
27/06/2024,1218 - 1060 SHEPPARD AVENUE W,TORONTO,ONTARIO,M3J0G7,FLORA QU,NU STREAM REALTY (TORONTO) INC.,"$699,000",43.7506089,79.4638689
25/06/2024,1219 DANFORTH AVENUE,TORONTO,ONTARIO,M4J1M7,REILLY HAYHURST,CUSHMAN & WAKEFIELD,"$975,000",43.681394,79.3314635
03/07/2024,122 - 1030 KING STREET W,TORONTO,ONTARIO,M6K0B4,COLBY BAYNE,ROYAL LEPAGE SIGNATURE REALTY,"$595,000",43.6415878,79.415938
02/07/2024,1220 - 120 VARNA DRIVE,TORONTO,ONTARIO,M6A0B3,ARTAN MUCKA,HOMELIFE CULTURELINK REALTY INC.,"$499,000",43.7235804,79.445742
27/06/2024,1221 - 711 BAY STREET,TORONTO,ONTARIO,M5G2J8,SHERRY DABIR,ROYAL LEPAGE YOUR COMMUNITY REALTY,"$589,000",43.658882,79.3845473
04/07/2024,1222 - 386 YONGE STREET,TORONTO,ONTARIO,M5B0A5,HELEN YANG,REAL ONE REALTY INC.,"$2,500/MONTHLY",43.6596706,79.3825726
6/29/2024,123 - 10 MENDELSSOHN STREET,TORONTO,ONTARIO,M1L0G7,TONY S. KALSI,TONY K REAL ESTATE,"$689,900",43.7145521,79.2816441
03/07/2024,123 - 2035 SHEPPARD AVENUE E,TORONTO,ONTARIO,M2J1W6,JIMMY KEE-MAN LEE,LANDSTARS 360 REALTY INC.,"$529,000",43.7753305,79.3358621
02/07/2024,123 - 71 MCCAUL STREET,TORONTO,ONTARIO,M5T2X1,COLIN ANDREW CAMPBELL,KELLER WILLIAMS REALTY CENTRES,"$498,000",43.6525053,79.390494
04/07/2024,123 SHAVER AVENUE N,TORONTO,ONTARIO,M9B4N6,RAMIN KHAKSARFARD,HOMELIFE SUPERSTARS REAL ESTATE LIMITED,"$2,399,000",43.6442669,79.5494817
03/07/2024,1237 - 68 CORPORATE DRIVE,TORONTO,ONTARIO,M1H3H3,KRISHNA CHIMATA,IPRO REALTY LTD.,"$537,000",43.7803897,79.2507308
25/06/2024,1249 QUEEN STREET E,TORONTO,ONTARIO,M4L1C2,KELVIN WONG,LIVING REALTY INC.,$1,43.6633531,79.3290776
02/07/2024,125 - 11 MARYPORT AVENUE,TORONTO,ONTARIO,M3M0E2,IAKOV KRAVTCHENKO,ROYAL LEPAGE TERREQUITY REALTY,"$483,000",43.739539,79.486137
04/07/2024,125 MACPHERSON AVENUE,TORONTO,ONTARIO,M5R1W9,CAILEY HEAPS,ROYAL LEPAGE REAL ESTATE SERVICES HEAPS ESTRIN TEAM,"$2,995,000",43.6779038,79.3951723
03/07/2024,1250 SW - 121 LOWER SHERBOURNE STREET,TORONTO,ONTARIO,M5A0W8,ROSE NGUYEN,HARLOWE REALTY CORPORATION,"$540,000",43.6495044,79.3670392
27/06/2024,1255 WARDEN AVENUE,TORONTO,ONTARIO,M1R2R4,JAMIE LORETTE,ZOLO REALTY,"$1,175,000",43.7509995,79.2966482
04/07/2024,126 - 5418 YONGE STREET,TORONTO,ONTARIO,M2N5R8,CHARLES D. FERREIRA,HOMELIFE REGIONAL REALTY LTD.,"$999,900",43.7755605,79.415667
04/07/2024,126 GRACE STREET,TORONTO,ONTARIO,M6J2S2,RAGHBIR SINGH LUBANA,AXIS REALTY BROKERAGE INC.,$1,43.6539955,79.4154687
6/26/2024,126 HIGHBOURNE ROAD,TORONTO,ONTARIO,M5P2J6,CYNTHIA CARSLEY,FOREST HILL REAL ESTATE INC.,"$2,495,000",43.7017908,79.4064101
29/06/2024,1265 - 209 FORT YORK BOULEVARD,TORONTO,ONTARIO,M5V4A1,PAUL JOSEPH BENDAVID,RE/MAX REALTRON REALTY INC.,"$638,000",43.6370843,79.4045175
03/07/2024,1266 - 60 ANN O'REILLY ROAD,TORONTO,ONTARIO,M2J0C8,SOPHIE TURNER,GOGREEN PROPERTY CONSULTING INC.,"$580,000",43.7742478,79.3293457
27/06/2024,1271 KINGSTON ROAD,TORONTO,ONTARIO,M1N1P4,DIMITRI XOURAFAS,PLEX REALTY CORPORATION,"$1,149,999",43.6836726,79.2765112
6/24/2024,128 - 150 FARNHAM AVENUE,TORONTO,ONTARIO,M4V1H5,GORDON JOHN MASON,BOSLEY REAL ESTATE LTD.,"$359,900",43.6838846,79.3998234
03/07/2024,128 - 150 FARNHAM AVENUE,TORONTO,ONTARIO,M4V1H5,GORDON JOHN MASON,BOSLEY REAL ESTATE LTD.,"$339,900",43.6838846,79.3998234
04/07/2024,128 ROYWOOD DRIVE,TORONTO,ONTARIO,M3A2E1,MEGHAN PARKS,BERKSHIRE HATHAWAY HOMESERVICES TORONTO REALTY,"$899,000",43.7657967,79.3286663
04/07/2024,1297 DAVENPORT ROAD,TORONTO,ONTARIO,M6H2H3,VIPUL VERMA,HOMELIFE/MIRACLE REALTY LTD,"$1,349,999",43.6736874,79.4376783
6/24/2024,13 - 101 ALFORD CRESCENT,TORONTO,ONTARIO,M1B4G3,KOBY CHRISTIAN PHILIP-JOSEPH,ROYAL LEPAGE VISION REALTY,"$799,999",43.8085902,79.2104649
27/06/2024,13 ISAAC DEVINS BOULEVARD,TORONTO,ONTARIO,M9M0C7,SATHYAM KAPOOR,ROYAL LEPAGE PLATINUM REALTY,"$1,199,999",43.7292071,79.5340832
29/06/2024,13 ISAAC DEVINS BOULEVARD,TORONTO,ONTARIO,M9M0C7,AMAN KHATTRA,ROYAL LEPAGE PLATINUM REALTY,"$1,199,999",43.72943656,79.53395445
6/24/2024,130 KINGSLAKE ROAD,TORONTO,ONTARIO,M2J3G1,KRISTY ZHAI,PROPTECH REALTY INC.,"$1,620,000",43.7873972,79.3450551
29/06/2024,130 PARLIAMENT STREET,TORONTO,ONTARIO,M5A2Y8,BRAD JOHN LAMB,BRAD J. LAMB REALTY 2016 INC.,"$3,450/MONTHLY",43.6541481,79.3640526
27/06/2024,130 RIVER STREET UNIT# 2307,TORONTO,ONTARIO,M5A0R8,GIULIA ZUCCARO,BETTER HOMES AND GARDENS REAL ESTATE SIGNATURE SERVICE,"$628,888",43.66142987,79.3584553
6/25/2024,1301 - 1350 ELLESMERE ROAD,TORONTO,ONTARIO,M1P2X9,MELISSA BENNETT,KELLER WILLIAMS REALTY CENTRES,"$849,900",43.770473,79.2618232
03/07/2024,1301 - 18 GRAYDON HALL DRIVE,TORONTO,ONTARIO,M3A0A4,EDWARD C.F. LAM,CENTURY 21 ATRIA REALTY INC.,"$599,999",43.7627912,79.3464354
6/24/2024,1301 - 28 SOMMERSET WAY W,TORONTO,ONTARIO,M2N6W7,OLEG KOSTENYUK,META REALTY INC.,"$799,999",43.7766976,79.4110598
03/07/2024,1302 - 120 PARLIAMENT STREET,TORONTO,ONTARIO,M5A0N6,ALEXANDER GASENKO,RIGHT AT HOME REALTY INVESTMENTS GROUP,"$599,900",43.6537663,79.3640677
27/06/2024,1302 - 128 FAIRVIEW MALL DRIVE,TORONTO,ONTARIO,M2J0E8,VIC LAM,CENTURY 21 ATRIA REALTY INC.,"$788,000",43.77998,79.3449211
6/24/2024,1302 - 8 THE ESPLANADE,TORONTO,ONTARIO,M5E0A6,DAVID EISFELD,ROYAL LEPAGE REAL ESTATE SERVICES LTD.,"$1,199,000",43.6460366,79.3763206
25/06/2024,1303 - 181 HURON STREET,TORONTO,ONTARIO,M5T0C1,YANYAN WANG,TRADEWORLD REALTY INC,"$880,000",43.6581179,79.3979076
03/07/2024,1303 - 260 QUEENS QUAY W,TORONTO,ONTARIO,M5J2N3,ANDREW DOUMONT,KELLER WILLIAMS REFERRED URBAN REALTY,"$599,900",43.639392,79.38576
03/07/2024,1304 - 330 MCCOWAN ROAD,TORONTO,ONTARIO,M1J3N3,LEILA TALIBOVA,FOREST HILL REAL ESTATE INC.,"$599,900",43.737572,79.2384628
29/06/2024,1305 - 10 DEERLICK DRIVE,TORONTO,ONTARIO,M3A0A7,ROGER GRUBB,RE/MAX PREMIER INC.,"$599,998",43.653226,79.3831843
03/07/2024,1305 - 5 VALHALLA INN ROAD S,TORONTO,ONTARIO,M9B0B1,OUSAN AL-RADHI,HOME AND BUSINESS REALTY,"$555,000",43.6403217,79.5597743
04/07/2024,1306 - 33 LOMBARD STREET,TORONTO,ONTARIO,M5C3H8,GRAHAM W. CONNAUGHTON,SOTHEBY'S INTERNATIONAL REALTY CANADA,"$859,000",43.651371,79.3754181
03/07/2024,1306 - 37 GROSVENOR STREET W,TORONTO,ONTARIO,M4Y3G5,AHSAN R. QURESHI,AIMHOME REALTY INC.,"$599,900",43.6623943,79.38614
27/06/2024,1307 - 33 HELENDALE AVENUE S,TORONTO,ONTARIO,M4R1C5,RAY YANG,MEHOME REALTY (ONTARIO) INC.,"$839,000",43.7087661,79.3995613
02/07/2024,1308 - 220 VICTORIA STREET,TORONTO,ONTARIO,M5B2R6,JING LIN LI,HOMELIFE NEW WORLD REALTY INC.,"$487,000",43.6548584,79.3792134
03/07/2024,1308 - 50 THOMAS RILEY ROAD,TORONTO,ONTARIO,M9B0C5,SUNNY GAWRI,RE/MAX REALTY SERVICES INC.,"$549,999",43.6336928,79.5413038
27/06/2024,1308 - 60 BYNG AVENUE,TORONTO,ONTARIO,M2N7K3,MICHAEL ZHANG,HOMELIFE NEW WORLD REALTY INC.,"$649,000",43.7773991,79.4128
6/24/2024,1308 - 8 MERCER STREET,TORONTO,ONTARIO,M5V0C4,DAMIRIS MORO,RE/MAX WEST REALTY INC.,"$899,999",43.6459498,79.3897558
03/07/2024,1309 - 151 VILLAGE GREEN SQUARE E,TORONTO,ONTARIO,M1S0K5,HELEN YE,STRATA REAL ESTATE,"$525,000",43.7788438,79.2813251
6/24/2024,1309 - 240 SCARLETT ROAD,TORONTO,ONTARIO,M6N4X4,ASAD YAKOB,HOMELIFE SUPERSTARS REAL ESTATE LIMITED,"$750,000",43.675804,79.5083698
03/07/2024,1309 - 89 DUNFIELD AVENUE,TORONTO,ONTARIO,M4S0A4,SANGWOO SHON,HOMELIFE LANDMARK REALTY INC.,"$585,000",43.7069362,79.3951421
6/24/2024,131 PLUMROSE PATHWAY,TORONTO,ONTARIO,M1B4B6,VIJAY GANDHI,HOMELIFE/MIRACLE REALTY LTD,"$1,069,000",43.8107836,79.2108166
03/07/2024,1310 - 120 VARNA DRIVE,TORONTO,ONTARIO,M6A1N3,MARIANNE S. M. SIU,TRADEWORLD REALTY INC,"$506,000",43.7235804,79.445742
6/24/2024,1310 - 36 FOREST MANOR ROAD,TORONTO,ONTARIO,M2J0H3,ANDREW ZIARNO,BAKER REAL ESTATE INCORPORATED,"$699,000",43.7717027,79.3457475
02/07/2024,1310 - 36 ZORRA STREET,TORONTO,ONTARIO,M8Z0G5,JIANI CHEN,JDL REALTY INC.,"$456,000",43.6197417,79.5217377
27/06/2024,1310 - 38 MONTE KWINTER COURT,TORONTO,ONTARIO,M3H0E2,LOGAN YU,HOMELIFE LANDMARK REALTY INC.,"$559,000",43.7337909,79.4489233
03/07/2024,1310 - 55 ONTARIO STREET,TORONTO,ONTARIO,M5A0T8,MARVIN K YEUNG,CENTURY 21 KENNECT REALTY,"$565,000",43.653598,79.3662319
03/07/2024,1311 - 36 FOREST MANOR ROAD,TORONTO,ONTARIO,M2J0H3,WAJI ALI,IPRO REALTY LTD.,"$599,900",43.7717131,79.3457636
02/07/2024,1312 - 10 DE BOERS DRIVE,TORONTO,ONTARIO,M3J0L6,SANDRINE VATINEL,HOMELIFE/CIMERMAN REAL ESTATE LIMITED,"$499,900",43.7515255,79.4641055
03/07/2024,1312 - 225 SACKVILLE STREET,TORONTO,ONTARIO,M5A0B9,ROY RUNIONS,RE/MAX HALLMARK REALTY LTD.,"$570,000",43.6598117,79.3627916
03/07/2024,1312 - 30 SAMUEL WOOD WAY,TORONTO,ONTARIO,M9B0C9,SANDY SUN,ROYAL LEPAGE REAL ESTATE SERVICES LTD.,"$498,000",43.63469,79.54056
27/06/2024,1312 - 30 SHORE BREEZE DRIVE,TORONTO,ONTARIO,M8V0E1,HOVIG TCHADERIAN,REALTY WEALTH GROUP INC.,"$649,990",43.6237762,79.479633
03/07/2024,1313 - 10 DEBOERS DRIVE,TORONTO,ONTARIO,M3J0H1,RICHARD KANG-CHOO,BOSLEY REAL ESTATE LTD.,"$574,500",43.7515255,79.4641055
03/07/2024,1313 - 210 SIMCOE STREET,TORONTO,ONTARIO,M5T0A9,SUSAN LEE,ROYAL LEPAGE NEW CONCEPT,"$558,000",43.6525593,79.3884782
29/06/2024,1313 - 30 SHORE BREEZE DRIVE,TORONTO,ONTARIO,M8V0J1,SALMAN ALAM,IPRO REALTY LTD.,"$749,999",43.6236377,79.4798529
6/24/2024,1313 - 30 SHORE BREEZE DRIVE,TORONTO,ONTARIO,M8V0J1,SALMAN ALAM,IPRO REALTY LTD.,"$3,000/MONTHLY",43.6236377,79.4798529
27/06/2024,1313 - 30 TRETTI WAY,TORONTO,ONTARIO,M3H0E3,SHAYAN SAFAEI,ROYAL LEPAGE SIGNATURE REALTY,"$457,926",43.7330693,79.4485317
03/07/2024,1316 - 8 MONDEO DRIVE,TORONTO,ONTARIO,M1P5C7,RYAN ADRIAN MORRISON,ROYAL STAR REALTY INC.,"$599,999",43.7645573,79.288366
27/06/2024,132 HOPEDALE AVENUE,TORONTO,ONTARIO,M4K3M7,KAREN BETH MARSHALL,HARVEY KALLES REAL ESTATE LTD.,"$1,249,000",43.6956657,79.3526835
29/06/2024,132 SHUTER STREET,TORONTO,ONTARIO,M5A1V8,JOE G. MACHADO,HOMELIFE REGIONAL REALTY LTD.,"$1,450,000",43.6559765,79.3717998
02/07/2024,1321 - 120 VARNA DRIVE,TORONTO,ONTARIO,M6A1N3,LOUIE LUK,CENTURY 21 LEADING EDGE REALTY INC.,"$459,000",43.7235804,79.445742
25/06/2024,1323 - 500 DORIS AVENUE,TORONTO,ONTARIO,M2N0C1,TONG ZHANG,HOMELIFE LANDMARK REALTY INC.,"$825,000",43.7764936,79.4139238
6/24/2024,133 - 20 BROOKMILL BOULEVARD,TORONTO,ONTARIO,M1W2Y5,MARY ROMBIS,CENTURY 21 LEADING EDGE REALTY INC.,"$699,000",43.802311,79.3159898
03/07/2024,1331 - 5 MABELLE AVENUE,TORONTO,ONTARIO,M9A0C8,MARK BRIAN ABRAHAM,CONDOMAN REALTY INC.,"$507,500",43.6466642,79.5255121
27/06/2024,134 GILMOUR AVENUE,TORONTO,ONTARIO,M6P3B3,MICHAEL INWOOD,RE/MAX PROFESSIONALS SIDOROVA INWOOD REALTY,"$2,798,000",43.6616825,79.4784336
04/07/2024,134 JONES AVENUE,TORONTO,ONTARIO,M4M3A1,TARA CROOKS,REAL BROKER ONTARIO LTD.,"$1,149,000",43.6664111,79.3345477
27/06/2024,134 LOTHIAN AVENUE,TORONTO,ONTARIO,M8Z4L4,CORINNE DELPIERO,ROYAL LEPAGE REALTY CENTRE,"$1,449,000",43.6361297,79.5177059
27/06/2024,134 MILLICENT STREET,TORONTO,ONTARIO,M6H1W4,ARTHUR PAK YU,HOMEART REALTY SERVICES INC.,"$3,250,000",43.6648247,79.442545
04/07/2024,1340 WARDEN AVENUE,TORONTO,ONTARIO,M1R2R8,DAVID RUBEL,KELLER WILLIAMS CO-ELEVATION REALTY,"$998,000",43.7556439,79.2993147
03/07/2024,135 BUCKINGHAM AVENUE,TORONTO,ONTARIO,M4N1R5,NANCY SAEDI,ROYAL LEPAGE REAL ESTATE SERVICES NANCY SAEDI,"$7,880,000",43.727039,79.3869791
27/06/2024,136 GLENVALE BOULEVARD,TORONTO,ONTARIO,M4G2V9,BARBRA POLLOCK,HARVEY KALLES REAL ESTATE LTD.,"$1,329,000",43.7180951,79.3696724
6/24/2024,137 LAWRENCE AVENUE E,TORONTO,ONTARIO,M4N1S9,EDDIE W. K. CHEUNG,CENTURY 21 KING'S QUAY REAL ESTATE INC.,"$2,049,000",43.7265005,79.3946811
29/06/2024,137 NORTH CARSON STREET,TORONTO,ONTARIO,M8W4C7,RIGCHOCK TENZIN,RIGHT AT HOME REALTY,"$1,199,000",43.6082012,79.5364379
04/07/2024,137 SPRINGHURST AVENUE,TORONTO,ONTARIO,M6K1B9,PAUL KOSHY,FOREST HILL REAL ESTATE INC.,"$1,528,000",43.6354394,79.4369725
27/06/2024,138 - 80 PARROTTA DRIVE,TORONTO,ONTARIO,M9M0E6,RUDY CARNEIRO,ROYAL LEPAGE SUPREME REALTY,"$549,000",43.7338819,79.5351114
03/07/2024,138 DOWNES STREET UNIT# 3116,TORONTO,ONTARIO,M5E0E4,NEIL MCINTYRE,REMAX REALTY SERVICES INC M,"$549,000",43.64446279,79.3711045
6/24/2024,139 DRAYTON AVENUE,TORONTO,ONTARIO,M4C3M1,DAN CAMPANELLA,KELLER WILLIAMS ADVANTAGE REALTY,"$1,765,000",43.6828867,79.3195071
25/06/2024,1398 DUNDAS STREET W,TORONTO,ONTARIO,M6J1Y5,MICHAEL BETEL,CUSHMAN & WAKEFIELD,$1,43.6497408,79.4286962
27/06/2024,139A LAPPIN AVENUE,TORONTO,ONTARIO,M6H1Y6,ELI BAKHTIARI,RE/MAX REALTRON ELI BAKHTIARI TEAM REALTY,"$998,000",43.6651297,79.4437483
27/06/2024,14 - 25 PEBBLE BYWAY,TORONTO,ONTARIO,M2H3J6,MARINA SHULMAN,ROYAL LEPAGE YOUR COMMUNITY REALTY,"$579,900",43.8022426,79.3551427
25/06/2024,14 - 260 TWELFTH STREET,TORONTO,ONTARIO,M8V0J6,BHAVESH PATEL,CENTURY 21 LEADING EDGE REALTY INC.,"$739,000",43.6013723,79.5120457
27/06/2024,14 - 266 FINCH AVENUE E,TORONTO,ONTARIO,M2N0L3,SUNYOUNG PARK,SELLING TORONTO REAL ESTATE INC.,"$999,000",43.7842218,79.3963875
6/29/2024,14 CAVEHILL CRESCENT,TORONTO,ONTARIO,M1R4P9,WINSTON SHIM,HOMELIFE LANDMARK REALTY INC.,"$988,000",43.7664988,79.3095738
6/24/2024,14 CHERRYSTONE DRIVE,TORONTO,ONTARIO,M2H1R9,DON CAI,ANJIA REALTY,"$1,670,000",43.8083837,79.3628734
27/06/2024,14 GREYSTONE COURT,TORONTO,ONTARIO,M8V4A5,VANESSA BAGLIERI,RE/MAX REALTRON TPS REALTY,"$1,499,000",43.6205266,79.4860559
27/06/2024,14 KESTELL LANE,TORONTO,ONTARIO,M3A2Z1,GRANT GILMOUR,RE/MAX REALTY SPECIALISTS INC.,"$1,600,000",43.7495421,79.3398182
27/06/2024,14 MILKWOOD AVENUE,TORONTO,ONTARIO,M9V1M1,SAMI KHAN,CENTURY 21 PREMIUM REALTY,"$1,050,000",43.7297208,79.5914846
6/25/2024,14 NAVARRE CRESCENT,TORONTO,ONTARIO,M1E1N6,NICOLE DIGALAKIS,RE/MAX ALL-STARS REALTY INC.,"$1,675,000",43.7499449,79.1912239
03/07/2024,14 RAMSBURY ROAD,TORONTO,ONTARIO,M8Z4V3,ROCCO PICCININNO,SUTTON GROUP-TOWER REALTY LTD.,"$2,500/MONTHLY",43.6249125,79.5178435
04/07/2024,14 WINSTON AVENUE,TORONTO,ONTARIO,M1N1W3,SHAUR UPPAL,VERTICAL MARKETING REALTY,"$1,145,600",43.6842173,79.284295
03/07/2024,14 YORK STREET UNIT# 5110,TORONTO,ONTARIO,M5J0B1,ROBERT VIOLO,"RE/MAX ESCARPMENT REALTY INC., BROKERAGE","$588,000",43.64227477,79.38160522
6/24/2024,140 - 50 CARNATION AVENUE,TORONTO,ONTARIO,M8V0B8,SHARON LEIGH MCGUIGAN,ROYAL LEPAGE REAL ESTATE SERVICES LTD.,"$788,800",43.6010282,79.5259754
29/06/2024,140 FIRGROVE CRESCENT,TORONTO,ONTARIO,M3N1K6,SARAH PETICCA,FOREST HILL REAL ESTATE INC.,"$940,000",43.7492843,79.523162
27/06/2024,140 WEST LODGE AVENUE,TORONTO,ONTARIO,M6K2T5,CARLA MANSUR,THE AGENCY,"$1,199,000",43.6455472,79.4374445
27/06/2024,140 WEST LODGE AVENUE,TORONTO,ONTARIO,M6K2T5,CARLA MANSUR,THE AGENCY,"$1,199,000",43.64554422,79.43744657
03/07/2024,1401 - 10 DEERLICK COURT,TORONTO,ONTARIO,M3A0A7,TOM PILEGGI,EXP REALTY,"$589,000",43.7591964,79.3319238
03/07/2024,1401 - 1060 SHEPPARD AVENUE W,TORONTO,ONTARIO,M3J0G7,TAYLOR SUGAR,ROYAL LEPAGE RCR REALTY,"$589,000",43.7506089,79.4638689
03/07/2024,1401 - 185 LEGION ROAD,TORONTO,ONTARIO,M8Y0A1,USMAN RAJA WAHEED,RE/MAX HALLMARK REALTY LTD.,"$569,900",43.6246597,79.4881868
6/24/2024,1401 - 188 DORIS AVENUE,TORONTO,ONTARIO,M2N6Z5,HARJIT SINGH KHALSA,HOMELIFE SUPERSTARS REAL ESTATE LIMITED,"$499,999",43.7674356,79.4106943
25/06/2024,1401 - 235 SHERWAY GARDENS ROAD,TORONTO,ONTARIO,M9C0A2,FRANCA COLLIA,SUTTON GROUP QUANTUM REALTY INC.,"$599,998",43.6092606,79.5589927
29/06/2024,1401 - 3845 LAKE SHORE BOULEVARD W,TORONTO,ONTARIO,M8W4Y3,JAMIE ACKERMAN,ON THE BLOCK,"$650,000",43.5906111,79.544298
03/07/2024,1401 - 50 ANN O'REILLY ROAD,TORONTO,ONTARIO,M2J0C9,JEREMY ANDREW CHEN,ONE PERCENT REALTY LTD.,"$599,999",43.7744707,79.329999
03/07/2024,1401 - 6 EVA ROAD,TORONTO,ONTARIO,M9C5H7,ANDREW DOUMONT,KELLER WILLIAMS REFERRED URBAN REALTY,"$599,900",43.6402685,79.5627442
03/07/2024,1401 - 70 HIGH PARK AVENUE,TORONTO,ONTARIO,M6P1A1,GARY BETTS,RE/MAX REALTY SPECIALISTS INC.,"$599,900",43.6559634,79.4669699
29/06/2024,1401 - 8 CHARLOTTE STREET,TORONTO,ONTARIO,M5V0K4,JOSHUA MIN,JAMES SO REALTY LTD.,"$3,000/MONTHLY",43.6460181,79.3938391
03/07/2024,1402 - 2 SONIC WAY,TORONTO,ONTARIO,M3C0P1,SELVAN PUVANESWARANATHAN,RE/MAX CROSSROADS REALTY INC.,"$699,000",43.7195387,79.3366542
6/24/2024,1402 - 20 EDGECLIFF GOLFWAY,TORONTO,ONTARIO,M3C3A4,ELLIAS LOUI KORKONTZILAS,HOMELIFE OLYMPIA REALTY INC.,"$529,999",43.7195558,79.3250352
25/06/2024,1402 - 77 CHARLES STREET W,TORONTO,ONTARIO,M5S0B2,VICTORIA BOSCARIOL,CHESTNUT PARK REAL ESTATE LIMITED,"$3,999,000",43.6677468,79.3903146
02/07/2024,1402 - 8 TIPPETT ROAD,TORONTO,ONTARIO,M3H0E7,TERRY MIN,ROYAL LEPAGE NEW CONCEPT,"$499,000",43.7324138,79.4468862
03/07/2024,1403 - 21 BALMUTO STREET,TORONTO,ONTARIO,M4Y1W4,MELANIE T. J. WRIGHT,UNION REALTY BROKERAGE INC.,"$599,900",43.6691686,79.3873418
03/07/2024,1403 - 30 ROEHAMPTON AVENUE,TORONTO,ONTARIO,M4P0B9,ADAM MAJOR,EASY LIST REALTY,"$599,999",43.7087677,79.3975119
02/07/2024,1403 - 32 FOREST MANOR ROAD,TORONTO,ONTARIO,M2J0H2,CINDY LIN,RE/MAX REALTRON REALTY INC.,"$499,000",43.7716527,79.3446498
03/07/2024,1403 - 50 ANN O'REILLY ROAD,TORONTO,ONTARIO,M2J0C9,AFSHIN YOUSEFZADEHFARD,HOMELIFE/CIMERMAN REAL ESTATE LIMITED,"$567,800",43.7744217,79.3299915
6/24/2024,1403 - 900 YONGE STREET,TORONTO,ONTARIO,M4W3P5,UZMA SIDDIQUI,ROYAL LEPAGE REAL ESTATE SERVICES LTD.,"$1,320,000",43.6735333,79.3883225
6/26/2024,1404 - 2221 YONGE STREET,TORONTO,ONTARIO,M4S0B8,RYAN CHAN,RE/MAX CROSSROADS REALTY INC.,"$634,900",43.7060642,79.3977203
03/07/2024,1404 - 2466 EGLINTON AVENUE E,TORONTO,ONTARIO,M1K5J7,KANNAN PANCHALINGAM,CENTURY 21 INNOVATIVE REALTY INC.,"$599,900",43.7344404,79.26099
03/07/2024,1405 - 14 NEILSON DRIVE,TORONTO,ONTARIO,M9C1V6,LUIGI NAPOLITANO,RE/MAX MILLENNIUM REAL ESTATE,"$599,000",43.6281045,79.5632645
29/06/2024,1405 - 33 SHEPPARD AVENUE E,TORONTO,ONTARIO,M2N7K1,LIFEI QU,AIMHOME REALTY INC.,"$2,700/MONTHLY",43.7612748,79.408924
6/24/2024,1405 - 5 GREYSTONE WALK DRIVE,TORONTO,ONTARIO,M1K5J5,BABU KANDEL,EVEREST REALTY LTD.,"$599,000",43.7255442,79.2517588
03/07/2024,1405 - 60 PAVANE LINKWAY WAY,TORONTO,ONTARIO,M3C1A2,MAZ RIVERIN,RIGHT AT HOME REALTY,"$600,000",43.7115189,79.322827
25/06/2024,1405 - 70 TEMPERANCE STREET,TORONTO,ONTARIO,M5H0B1,ALIREZA DAWOUDI,CENTURY 21 HERITAGE GROUP LTD.,"$476,000",43.6505301,79.3821482
03/07/2024,1405 - 9 VALHALLA INN ROAD,TORONTO,ONTARIO,M9B1S9,PAUL PURCELL,ROYAL LEPAGE URBAN REALTY,"$579,000",43.6399691,79.559482
04/07/2024,1406 - 10 EVA ROAD,TORONTO,ONTARIO,M9C0B3,SHEKHAR KAMBOJ,RIGHT AT HOME REALTY,"$890,000",43.6407541,79.5626049
02/07/2024,1406 - 10 SUNNY GLENWAY,TORONTO,ONTARIO,M3C2Z3,LOK DORANGA,EVEREST REALTY LTD.,"$425,000",43.710053,79.3311371
03/07/2024,1406 - 2 SONIC WAY,TORONTO,ONTARIO,M3C0P2,ERIC SHEN,UNION CAPITAL REALTY,"$549,999",43.7193606,79.3365884
25/06/2024,1407 - 1 KING STREET W,TORONTO,ONTARIO,M5H1A1,DARRELL CHRISTOPHER CHAN,CENTURY 21 ATRIA REALTY INC.,"$545,000",43.6488576,79.3781453
03/07/2024,1407 - 10 SUNNY GLENWAY,TORONTO,ONTARIO,M3C2Z3,ALEX PRICE,SEARCH REALTY,"$549,000",43.710053,79.3311371
03/07/2024,1407 - 2015 SHEPPARD AVENUE E,TORONTO,ONTARIO,M2J1W6,MIKE BONAKDAR,CENTRAL HOME REALTY INC.,"$529,000",43.7754314,79.3374322
6/24/2024,1407 - 238 SIMCOE STREET,TORONTO,ONTARIO,M5T3B9,TOM DUAN,NEW VISION CAPITAL REALTY INC.,"$2,400/MONTHLY",43.6537487,79.3891112
27/06/2024,1407 - 5 ROWNTREE ROAD,TORONTO,ONTARIO,M9V5G9,NIRMAL SINGH SANDHU,RE/MAX REALTY SPECIALISTS INC.,"$619,901",43.7494792,79.5807578
03/07/2024,1407 - 75 THE DONWAY W,TORONTO,ONTARIO,M3C2E9,SHEREEF OSMAN,ROYAL LEPAGE SIGNATURE REALTY,"$599,000",43.7328063,79.3456701
03/07/2024,1408 - 10 PARK LAWN ROAD,TORONTO,ONTARIO,M8Y3H8,SAM KAMRA,REAL ESTATE BAY REALTY,"$599,999",43.6232586,79.4838561
03/07/2024,1408 - 15 LOWER JARVIS STREET,TORONTO,ONTARIO,M5E0C4,GOLDIA QIAO,JDL REALTY INC.,"$749,000",43.6451805,79.3692779
03/07/2024,1408 - 18 HOLMES AVENUE,TORONTO,ONTARIO,M2N0E1,FRED HERAVI,ZOLO REALTY,"$569,000",43.7784859,79.4133299
03/07/2024,1408 - 90 DALE AVENUE,TORONTO,ONTARIO,M1J3N4,JENNIFER DERNEK,ROYAL LEPAGE TERREQUITY REALTY,"$579,000",43.752584,79.2041953
03/07/2024,1409 - 130 NEPTUNE DRIVE,TORONTO,ONTARIO,M6A1X5,MARVIN NEWMAN,SUTTON GROUP-ADMIRAL REALTY INC.,"$599,900",43.7303668,79.4410666
6/24/2024,1409 - 28 HOLLYWOOD AVENUE,TORONTO,ONTARIO,M2N6S4,TIMOTHY ZHAO,FIRST CLASS REALTY INC.,"$845,000",43.7667524,79.4103404
03/07/2024,1409 - 38 MONTE KWINTER COURT,TORONTO,ONTARIO,M3H0E2,AMJAD ALI,IPRO REALTY LTD,"$580,000",43.7335675,79.4488309
02/07/2024,1409 - 56 ANNIE CRAIG DRIVE,TORONTO,ONTARIO,M8V0C8,ELENA PREDEINA,RIGHT AT HOME REALTY,"$485,900",43.6254787,79.4788159
03/07/2024,1409 - 7 KING STREET E,TORONTO,ONTARIO,M5C3C5,GEORGIA KOTIADIS-CARNEVALE,ROYAL LEPAGE SIGNATURE REALTY,"$530,000",43.6492492,79.3770373
03/07/2024,1410 - 3233 EGLINTON AVENUE E,TORONTO,ONTARIO,M1J3N6,JOE ANDREOLI,RE/MAX ULTIMATE REALTY INC.,"$595,000",43.7436627,79.2131425
03/07/2024,1410 - 61 RICHVIEW ROAD,TORONTO,ONTARIO,M9A4M8,JUSTIN JOSEPH ZERAFA,RE/MAX WEST REALTY INC.,"$569,800",43.684081,79.5167385
25/06/2024,1410 - 87 PETER STREET,TORONTO,ONTARIO,M5V2G4,CHUCK LI,SKYLETTE MARKETING REALTY INC.,"$2,500/MONTHLY",43.6468737,79.392387
02/07/2024,1411 - 3380 EGLINTON AVENUE E,TORONTO,ONTARIO,M1J3L6,AZITA ZAREI,RE/MAX REALTRON REALTY INC.,"$499,999",43.7447665,79.2145844
29/06/2024,1411 - 3845 LAKE SHORE BOULEVARD,TORONTO,ONTARIO,M8W4Y3,FERNANDO PERRI,KELLER WILLIAMS REFERRED URBAN REALTY,"$799,000",43.5906111,79.544298
03/07/2024,1411 - 714 THE WEST MALL,TORONTO,ONTARIO,M9C4X1,JOSEPH NAVI,HOMELIFE/BAYVIEW REALTY INC.,"$579,800",43.6568866,79.5707703
6/26/2024,1411 - 99 BROADWAY AVENUE,TORONTO,ONTARIO,M4P0E3,ANITA SADA,HOMELIFE FRONTIER REALTY INC.,"$649,000",43.7105663,79.3932957
25/06/2024,1412 - 1 KING STREET W,TORONTO,ONTARIO,M5H1A1,DARRELL CHRISTOPHER CHAN,CENTURY 21 ATRIA REALTY INC.,"$599,900",43.6488576,79.3781453
03/07/2024,1412 - 830 LAWRENCE AVENUE W,TORONTO,ONTARIO,M6A1C3,IRFAN CHAUDHRY,CITYSCAPE REAL ESTATE LTD.,"$519,999",43.7146575,79.4544089
6/24/2024,1413 - 1 MARKET STREET,TORONTO,ONTARIO,M5E0A2,OLIVIA TORUN,RE/MAX REALTY ENTERPRISES INC.,"$1,088,000",43.6468752,79.3710718
